{
"type": "FeatureCollection",
"crs": { "type": "name", "properties": { "name": "urn:ogc:def:crs:OGC:1.3:CRS84" } },
"features": [
{ "type": "Feature", "properties": { "Name": "Streatham Space Project ", "Borough": "Lambeth", "Address": "Sternhold Ave", "Type": "Art Centers" }, "geometry": { "type": "Point", "coordinates": [ -0.1276554, 51.43878494 ] } },
{ "type": "Feature", "properties": { "Name": "QUEERCIRCLE", "Borough": "Greenwich", "Address": "Building 4, Design District,", "Type": "Art Centers" }, "geometry": { "type": "Point", "coordinates": [ 0.00572, 51.49936 ] } },
{ "type": "Feature", "properties": { "Name": "Arts Depot ", "Borough": "Barnet", "Address": "5 Nether St", "Type": "Art Centers" }, "geometry": { "type": "Point", "coordinates": [ -0.176699509, 51.61281644 ] } },
{ "type": "Feature", "properties": { "Name": "Battersea Arts Centre ", "Borough": "Wandsworth", "Address": "Lavender Hill", "Type": "Art Centers" }, "geometry": { "type": "Point", "coordinates": [ -0.160813767, 51.46516318 ] } },
{ "type": "Feature", "properties": { "Name": "Bernie Grant Arts Centre ", "Borough": "Haringey", "Address": "Town Hall Approach Rd ", "Type": "Art Centers" }, "geometry": { "type": "Point", "coordinates": [ -0.073075943, 51.58747503 ] } },
{ "type": "Feature", "properties": { "Name": "Chats Palace ", "Borough": "Hackney", "Address": "42-44 Brooksby's Walk", "Type": "Art Centers" }, "geometry": { "type": "Point", "coordinates": [ -0.042683326, 51.55026393 ] } },
{ "type": "Feature", "properties": { "Name": "Dugdale  ", "Borough": "Enfield", "Address": "39 London Road", "Type": "Art Centers" }, "geometry": { "type": "Point", "coordinates": [ -0.081118167, 51.65031766 ] } },
{ "type": "Feature", "properties": { "Name": "Harrow Arts Centre ", "Borough": "Harrow", "Address": "171 Uxbridge Road", "Type": "Art Centers" }, "geometry": { "type": "Point", "coordinates": [ -0.363803161, 51.60848854 ] } },
{ "type": "Feature", "properties": { "Name": "ICA", "Borough": "Westminster", "Address": "The Mall", "Type": "Art Centers" }, "geometry": { "type": "Point", "coordinates": [ -0.130148252, 51.50671003 ] } },
{ "type": "Feature", "properties": { "Name": "Irish Cultural Centre ", "Borough": "Hammersmith and Fulham", "Address": "5 Black's Rd", "Type": "Art Centers" }, "geometry": { "type": "Point", "coordinates": [ -0.225584711, 51.49231323 ] } },
{ "type": "Feature", "properties": { "Name": "Jacksons Lane ", "Borough": "Haringey", "Address": "269A Archway Rd", "Type": "Art Centers" }, "geometry": { "type": "Point", "coordinates": [ -0.145404162, 51.57668107 ] } },
{ "type": "Feature", "properties": { "Name": "JW3", "Borough": "Camden", "Address": "341-351 Finchley Rd", "Type": "Art Centers" }, "geometry": { "type": "Point", "coordinates": [ -0.184819282, 51.5509403 ] } },
{ "type": "Feature", "properties": { "Name": "OSO Arts Centre", "Borough": "Richmond upon Thames", "Address": "49 Station Rd", "Type": "Art Centers" }, "geometry": { "type": "Point", "coordinates": [ -0.246625659, 51.47230095 ] } },
{ "type": "Feature", "properties": { "Name": "Redbridge Drama Centre ", "Borough": "Redbridge", "Address": "Churchfields", "Type": "Art Centers" }, "geometry": { "type": "Point", "coordinates": [ 0.022659873, 51.5984529 ] } },
{ "type": "Feature", "properties": { "Name": "Rich Mix ", "Borough": "Tower Hamlets", "Address": "35-47 Bethnal Green Rd", "Type": "Art Centers" }, "geometry": { "type": "Point", "coordinates": [ -0.073275203, 51.52435934 ] } },
{ "type": "Feature", "properties": { "Name": "Riverside Studios ", "Borough": "Hammersmith and Fulham", "Address": "19 Crisp Rd", "Type": "Art Centers" }, "geometry": { "type": "Point", "coordinates": [ -0.228255397, 51.48890897 ] } },
{ "type": "Feature", "properties": { "Name": "Southbank Centre ", "Borough": "Lambeth", "Address": "Belvedere Road", "Type": "Art Centers" }, "geometry": { "type": "Point", "coordinates": [ -0.116800006, 51.50576807 ] } },
{ "type": "Feature", "properties": { "Name": "The Tabernacle", "Borough": "Kensington and Chelsea", "Address": "35 Powis Square", "Type": "Art Centers" }, "geometry": { "type": "Point", "coordinates": [ -0.201881407, 51.51696816 ] } },
{ "type": "Feature", "properties": { "Name": "The Albany ", "Borough": "Lewisham", "Address": "Douglas Way", "Type": "Art Centers" }, "geometry": { "type": "Point", "coordinates": [ -0.027409247, 51.4778771 ] } },
{ "type": "Feature", "properties": { "Name": "The Arts Centre Houndslow ", "Borough": "Hounslow", "Address": "Â First Floor", "Type": "Art Centers" }, "geometry": { "type": "Point", "coordinates": [ -0.363025347, 51.46813353 ] } },
{ "type": "Feature", "properties": { "Name": "The Barbican ", "Borough": "City of London", "Address": "Silk St", "Type": "Art Centers" }, "geometry": { "type": "Point", "coordinates": [ -0.094102589, 51.51996071 ] } },
{ "type": "Feature", "properties": { "Name": "The Landmark Arts Centre ", "Borough": "Richmond upon Thames", "Address": "Landmark Arts Centre ", "Type": "Art Centers" }, "geometry": { "type": "Point", "coordinates": [ -0.324626903, 51.4280867 ] } },
{ "type": "Feature", "properties": { "Name": "The Library at Willesdon Green", "Borough": "Brent", "Address": "95 High Road", "Type": "Art Centers" }, "geometry": { "type": "Point", "coordinates": [ -0.228921501, 51.5466504 ] } },
{ "type": "Feature", "properties": { "Name": "Watermans Arts Centre", "Borough": "Hounslow", "Address": "40 High St", "Type": "Art Centers" }, "geometry": { "type": "Point", "coordinates": [ -0.298042371, 51.48576836 ] } },
{ "type": "Feature", "properties": { "Name": "Poplar Union ", "Borough": "Tower Hamlets", "Address": "2 Cotall St", "Type": "Art Centers" }, "geometry": { "type": "Point", "coordinates": [ -0.02298261, 51.51559973 ] } },
{ "type": "Feature", "properties": { "Name": "Fairfield Halls ", "Borough": "Croydon", "Address": "Park Ln", "Type": "Art Centers" }, "geometry": { "type": "Point", "coordinates": [ -0.095778074, 51.37252439 ] } },
{ "type": "Feature", "properties": { "Name": "Domobaal", "Borough": "Camden", "Address": "3 John Street", "Type": "Commercial Galleries" }, "geometry": { "type": "Point", "coordinates": [ -0.113122142, 51.52109586 ] } },
{ "type": "Feature", "properties": { "Name": "Eagle Gallery", "Borough": "Islington", "Address": "159 Farringdon Road", "Type": "Commercial Galleries" }, "geometry": { "type": "Point", "coordinates": [ -0.108172319, 51.52365123 ] } },
{ "type": "Feature", "properties": { "Name": "Catto Gallery", "Borough": "Camden", "Address": "100 Heath Street", "Type": "Commercial Galleries" }, "geometry": { "type": "Point", "coordinates": [ -0.17688165, 51.55799728 ] } },
{ "type": "Feature", "properties": { "Name": "Austin/Desmond Fine Art", "Borough": "Camden", "Address": "Pied Bull YardÂ ", "Type": "Commercial Galleries" }, "geometry": { "type": "Point", "coordinates": [ -0.122767057, 51.51828276 ] } },
{ "type": "Feature", "properties": { "Name": "The October Gallery", "Borough": "Camden", "Address": "24 Old Gloucester Street", "Type": "Commercial Galleries" }, "geometry": { "type": "Point", "coordinates": [ -0.120122844, 51.52018301 ] } },
{ "type": "Feature", "properties": { "Name": "Rebecca Hossack Gallery 1", "Borough": "Camden", "Address": "2a Conway Street", "Type": "Commercial Galleries" }, "geometry": { "type": "Point", "coordinates": [ -0.137943496, 51.52153754 ] } },
{ "type": "Feature", "properties": { "Name": "Woolff Gallery", "Borough": "Camden", "Address": "89 Charlotte St", "Type": "Commercial Galleries" }, "geometry": { "type": "Point", "coordinates": [ -0.135485033, 51.51996059 ] } },
{ "type": "Feature", "properties": { "Name": "Lahd Gallery", "Borough": "Camden", "Address": "92 Heath Street", "Type": "Commercial Galleries" }, "geometry": { "type": "Point", "coordinates": [ -0.176921991, 51.55771011 ] } },
{ "type": "Feature", "properties": { "Name": "The Cob Gallery", "Borough": "Camden", "Address": "205 Royal College Street", "Type": "Commercial Galleries" }, "geometry": { "type": "Point", "coordinates": [ -0.136442133, 51.54065193 ] } },
{ "type": "Feature", "properties": { "Name": "Hanmi Gallery", "Borough": "Camden", "Address": "30 Maple Street", "Type": "Commercial Galleries" }, "geometry": { "type": "Point", "coordinates": [ -0.137360609, 51.52169017 ] } },
{ "type": "Feature", "properties": { "Name": "Gagosian Gallery 1", "Borough": "Camden", "Address": "6-24 Brittania Street", "Type": "Commercial Galleries" }, "geometry": { "type": "Point", "coordinates": [ -0.116418769, 51.5295938 ] } },
{ "type": "Feature", "properties": { "Name": "Novelty Automation", "Borough": "Camden", "Address": "1A Princeton Street", "Type": "Commercial Galleries" }, "geometry": { "type": "Point", "coordinates": [ -0.115321587, 51.51915264 ] } },
{ "type": "Feature", "properties": { "Name": "Tristan Hoare", "Borough": "Camden", "Address": "6 Fitzroy Square", "Type": "Commercial Galleries" }, "geometry": { "type": "Point", "coordinates": [ -0.137813889, 51.52294747 ] } },
{ "type": "Feature", "properties": { "Name": "The Crypt Gallery", "Borough": "Camden", "Address": "St Pancras Church", "Type": "Commercial Galleries" }, "geometry": { "type": "Point", "coordinates": [ -0.128582733, 51.52656883 ] } },
{ "type": "Feature", "properties": { "Name": "Leyden Gallery", "Borough": "Tower Hamlets", "Address": "9/9a Leyden Street", "Type": "Commercial Galleries" }, "geometry": { "type": "Point", "coordinates": [ -0.074641529, 51.51638732 ] } },
{ "type": "Feature", "properties": { "Name": "Brick Lane Gallery", "Borough": "Tower Hamlets", "Address": "216 Brick Lane", "Type": "Commercial Galleries" }, "geometry": { "type": "Point", "coordinates": [ -0.069808992, 51.52397045 ] } },
{ "type": "Feature", "properties": { "Name": "Espacio Gallery", "Borough": "Tower Hamlets", "Address": "159 Bethl Green Road", "Type": "Commercial Galleries" }, "geometry": { "type": "Point", "coordinates": [ -0.068939478, 51.52509833 ] } },
{ "type": "Feature", "properties": { "Name": "Whitechapel Gallery", "Borough": "Tower Hamlets", "Address": "77-82 Whitechapel High Street", "Type": "Commercial Galleries" }, "geometry": { "type": "Point", "coordinates": [ -0.068776522, 51.51566133 ] } },
{ "type": "Feature", "properties": { "Name": "Stolenspace Gallery", "Borough": "Tower Hamlets", "Address": "17 Osborn St,", "Type": "Commercial Galleries" }, "geometry": { "type": "Point", "coordinates": [ -0.068547523, 51.51596334 ] } },
{ "type": "Feature", "properties": { "Name": "Union Gallery", "Borough": "Tower Hamlets", "Address": "94 Teesdale Street", "Type": "Commercial Galleries" }, "geometry": { "type": "Point", "coordinates": [ -0.059732984, 51.52930433 ] } },
{ "type": "Feature", "properties": { "Name": "Cell Project Space", "Borough": "Tower Hamlets", "Address": "258 Cambridge Heath Road", "Type": "Commercial Galleries" }, "geometry": { "type": "Point", "coordinates": [ -0.055015701, 51.53276995 ] } },
{ "type": "Feature", "properties": { "Name": "Raven Row", "Borough": "Tower Hamlets", "Address": "56 Artillery Lane", "Type": "Commercial Galleries" }, "geometry": { "type": "Point", "coordinates": [ -0.075265891, 51.51764768 ] } },
{ "type": "Feature", "properties": { "Name": "The Cynthia Corbett Gallery", "Borough": "Merton", "Address": "15 Claremont Lodge", "Type": "Commercial Galleries" }, "geometry": { "type": "Point", "coordinates": [ -0.221209569, 51.41499765 ] } },
{ "type": "Feature", "properties": { "Name": "Bank of England Museum", "Borough": "City of London", "Address": "Bartholomew Lane", "Type": "Commercial Galleries" }, "geometry": { "type": "Point", "coordinates": [ -0.086112163, 51.51372411 ] } },
{ "type": "Feature", "properties": { "Name": "Crane Kalman", "Borough": "Kensington and Chelsea", "Address": "178 Brompton Road", "Type": "Commercial Galleries" }, "geometry": { "type": "Point", "coordinates": [ -0.165725579, 51.49745899 ] } },
{ "type": "Feature", "properties": { "Name": "The Rowley Gallery", "Borough": "Kensington and Chelsea", "Address": "115 Kensington Church Street", "Type": "Commercial Galleries" }, "geometry": { "type": "Point", "coordinates": [ -0.193200542, 51.50626751 ] } },
{ "type": "Feature", "properties": { "Name": "Japanese Gallery", "Borough": "Kensington and Chelsea", "Address": "66D Kensington Church St", "Type": "Commercial Galleries" }, "geometry": { "type": "Point", "coordinates": [ -0.192206067, 51.50481322 ] } },
{ "type": "Feature", "properties": { "Name": "Museum of Brands", "Borough": "Kensington and Chelsea", "Address": "111-117 Lancaster Road", "Type": "Commercial Galleries" }, "geometry": { "type": "Point", "coordinates": [ -0.209527314, 51.51586215 ] } },
{ "type": "Feature", "properties": { "Name": "The Dot Project", "Borough": "Kensington and Chelsea", "Address": "94 Fulham Road", "Type": "Commercial Galleries" }, "geometry": { "type": "Point", "coordinates": [ -0.17374671, 51.48928315 ] } },
{ "type": "Feature", "properties": { "Name": "Offer Waterman & Co", "Borough": "Kensington and Chelsea", "Address": "11 Langton Street", "Type": "Commercial Galleries" }, "geometry": { "type": "Point", "coordinates": [ -0.179246376, 51.48177813 ] } },
{ "type": "Feature", "properties": { "Name": "Cadogan Contemporary", "Borough": "Kensington and Chelsea", "Address": "87 Old Brompton Road", "Type": "Commercial Galleries" }, "geometry": { "type": "Point", "coordinates": [ -0.175323519, 51.49200577 ] } },
{ "type": "Feature", "properties": { "Name": "The Muse", "Borough": "Kensington and Chelsea", "Address": "269 Portobello Rd", "Type": "Commercial Galleries" }, "geometry": { "type": "Point", "coordinates": [ -0.205271243, 51.51742491 ] } },
{ "type": "Feature", "properties": { "Name": "Richard Young Gallery", "Borough": "Kensington and Chelsea", "Address": "4 Holland Street", "Type": "Commercial Galleries" }, "geometry": { "type": "Point", "coordinates": [ -0.190550283, 51.50280048 ] } },
{ "type": "Feature", "properties": { "Name": "Hackelbury", "Borough": "Kensington and Chelsea", "Address": "4 Launceston Place", "Type": "Commercial Galleries" }, "geometry": { "type": "Point", "coordinates": [ -0.183766347, 51.49852225 ] } },
{ "type": "Feature", "properties": { "Name": "Richard Green 2", "Borough": "Westminster", "Address": "33 New Bond Street", "Type": "Commercial Galleries" }, "geometry": { "type": "Point", "coordinates": [ -0.142044713, 51.51123753 ] } },
{ "type": "Feature", "properties": { "Name": "The Foundry Gallery", "Borough": "Kensington and Chelsea", "Address": "39 Old Church Street", "Type": "Commercial Galleries" }, "geometry": { "type": "Point", "coordinates": [ -0.170750556, 51.48387629 ] } },
{ "type": "Feature", "properties": { "Name": "Saatchi Gallery", "Borough": "Kensington and Chelsea", "Address": "Duke of York's HQ", "Type": "Commercial Galleries" }, "geometry": { "type": "Point", "coordinates": [ -0.157118058, 51.49009321 ] } },
{ "type": "Feature", "properties": { "Name": "Graffik Gallery", "Borough": "Kensington and Chelsea", "Address": "284 Portobello Road", "Type": "Commercial Galleries" }, "geometry": { "type": "Point", "coordinates": [ -0.205849663, 51.51884574 ] } },
{ "type": "Feature", "properties": { "Name": "Flying Colours Gallery", "Borough": "Kensington and Chelsea", "Address": "6 Burnsall Street", "Type": "Commercial Galleries" }, "geometry": { "type": "Point", "coordinates": [ -0.164609267, 51.48830408 ] } },
{ "type": "Feature", "properties": { "Name": "Sway Gallery", "Borough": "Islington", "Address": "70-72 Old Street", "Type": "Commercial Galleries" }, "geometry": { "type": "Point", "coordinates": [ -0.093593237, 51.52372993 ] } },
{ "type": "Feature", "properties": { "Name": "Islington Arts Factory", "Borough": "Islington", "Address": "2 Parkhurst Rd", "Type": "Commercial Galleries" }, "geometry": { "type": "Point", "coordinates": [ -0.121265295, 51.55371125 ] } },
{ "type": "Feature", "properties": { "Name": "James Freeman Gallery", "Borough": "Islington", "Address": "354 Upper Street", "Type": "Commercial Galleries" }, "geometry": { "type": "Point", "coordinates": [ -0.102922698, 51.53409791 ] } },
{ "type": "Feature", "properties": { "Name": "Space Station 65", "Borough": "Lambeth", "Address": "373 Kennington Road", "Type": "Commercial Galleries" }, "geometry": { "type": "Point", "coordinates": [ -0.109183494, 51.48601134 ] } },
{ "type": "Feature", "properties": { "Name": "CGP London", "Borough": "Southwark", "Address": "1 Park Approach", "Type": "Commercial Galleries" }, "geometry": { "type": "Point", "coordinates": [ -0.052317588, 51.49363345 ] } },
{ "type": "Feature", "properties": { "Name": "Purdy Hicks", "Borough": "Southwark", "Address": "65 Hopton Street", "Type": "Commercial Galleries" }, "geometry": { "type": "Point", "coordinates": [ -0.100432908, 51.50695993 ] } },
{ "type": "Feature", "properties": { "Name": "Sprout Community Arts", "Borough": "Wandsworth", "Address": "74 Moyser Road", "Type": "Commercial Galleries" }, "geometry": { "type": "Point", "coordinates": [ -0.145628394, 51.42351214 ] } },
{ "type": "Feature", "properties": { "Name": "Flowers Gallery East", "Borough": "Hackney", "Address": "82 Kingsland Road", "Type": "Commercial Galleries" }, "geometry": { "type": "Point", "coordinates": [ -0.075559892, 51.52913735 ] } },
{ "type": "Feature", "properties": { "Name": "Modern Art 1", "Borough": "Islington", "Address": "4-8 Helmet Row", "Type": "Commercial Galleries" }, "geometry": { "type": "Point", "coordinates": [ -0.092939916, 51.52452873 ] } },
{ "type": "Feature", "properties": { "Name": "Cubitt Gallery", "Borough": "Islington", "Address": "8 Angel Mews", "Type": "Commercial Galleries" }, "geometry": { "type": "Point", "coordinates": [ -0.106261015, 51.53184051 ] } },
{ "type": "Feature", "properties": { "Name": "Vitrine", "Borough": "Southwark", "Address": "15 Bermondsey Square", "Type": "Commercial Galleries" }, "geometry": { "type": "Point", "coordinates": [ -0.079165688, 51.49687761 ] } },
{ "type": "Feature", "properties": { "Name": "Skarstedt Gallery", "Borough": "Westminster", "Address": "8 Bennet Street", "Type": "Commercial Galleries" }, "geometry": { "type": "Point", "coordinates": [ -0.13902792, 51.50660747 ] } },
{ "type": "Feature", "properties": { "Name": "Ben Brown Fine Arts", "Borough": "Westminster", "Address": "12 Brookâ€™s Mews", "Type": "Commercial Galleries" }, "geometry": { "type": "Point", "coordinates": [ -0.144433792, 51.51189141 ] } },
{ "type": "Feature", "properties": { "Name": "Marlborough Fine Art", "Borough": "Westminster", "Address": "6 Albemarle Street", "Type": "Commercial Galleries" }, "geometry": { "type": "Point", "coordinates": [ -0.139271776, 51.50805031 ] } },
{ "type": "Feature", "properties": { "Name": "Messum's", "Borough": "Westminster", "Address": "28 Cork Street", "Type": "Commercial Galleries" }, "geometry": { "type": "Point", "coordinates": [ -0.139827885, 51.50996577 ] } },
{ "type": "Feature", "properties": { "Name": "Serpentine Gallery", "Borough": "Westminster", "Address": "Kensington Gardens", "Type": "Commercial Galleries" }, "geometry": { "type": "Point", "coordinates": [ -0.173406528, 51.50427907 ] } },
{ "type": "Feature", "properties": { "Name": "Frith Street Gallery", "Borough": "Westminster", "Address": "17-18 Golden Square", "Type": "Commercial Galleries" }, "geometry": { "type": "Point", "coordinates": [ -0.135416932, 51.51068715 ] } },
{ "type": "Feature", "properties": { "Name": "Sprovieri", "Borough": "Westminster", "Address": "23 Heddon Street", "Type": "Commercial Galleries" }, "geometry": { "type": "Point", "coordinates": [ -0.138302438, 51.51061608 ] } },
{ "type": "Feature", "properties": { "Name": "Chelsea Space", "Borough": "Westminster", "Address": "Chelsea College of Arts", "Type": "Commercial Galleries" }, "geometry": { "type": "Point", "coordinates": [ -0.126655127, 51.48992522 ] } },
{ "type": "Feature", "properties": { "Name": "Olivier Malingue", "Borough": "Westminster", "Address": "1st Floor", "Type": "Commercial Galleries" }, "geometry": { "type": "Point", "coordinates": [ -0.142467085, 51.5109879 ] } },
{ "type": "Feature", "properties": { "Name": "Richard Green 1", "Borough": "Westminster", "Address": "147 New Bond Street", "Type": "Commercial Galleries" }, "geometry": { "type": "Point", "coordinates": [ -0.142287149, 51.51080518 ] } },
{ "type": "Feature", "properties": { "Name": "White Cube", "Borough": "Westminster", "Address": "25-26 Masonâ€™s Yard", "Type": "Commercial Galleries" }, "geometry": { "type": "Point", "coordinates": [ -0.135577762, 51.50710128 ] } },
{ "type": "Feature", "properties": { "Name": "Willow Gallery", "Borough": "Westminster", "Address": "40 - 41 Duke Street", "Type": "Commercial Galleries" }, "geometry": { "type": "Point", "coordinates": [ -0.136402051, 51.50683819 ] } },
{ "type": "Feature", "properties": { "Name": "Albemarle Gallery", "Borough": "Westminster", "Address": "49 Albemarle Street", "Type": "Commercial Galleries" }, "geometry": { "type": "Point", "coordinates": [ -0.139625012, 51.5075163 ] } },
{ "type": "Feature", "properties": { "Name": "Rosenfeld Porcini", "Borough": "Westminster", "Address": "37 Rathbone Street", "Type": "Commercial Galleries" }, "geometry": { "type": "Point", "coordinates": [ -0.134411482, 51.5180099 ] } },
{ "type": "Feature", "properties": { "Name": "Lisson Gallery 1", "Borough": "Westminster", "Address": "67 Lisson St", "Type": "Commercial Galleries" }, "geometry": { "type": "Point", "coordinates": [ -0.166555495, 51.52057634 ] } },
{ "type": "Feature", "properties": { "Name": "Imitate Modern", "Borough": "Westminster", "Address": "19 Shepherd Market", "Type": "Commercial Galleries" }, "geometry": { "type": "Point", "coordinates": [ -0.145238341, 51.50592343 ] } },
{ "type": "Feature", "properties": { "Name": "Mark Gallery", "Borough": "Westminster", "Address": "9 Porchester Place", "Type": "Commercial Galleries" }, "geometry": { "type": "Point", "coordinates": [ -0.163950904, 51.51436604 ] } },
{ "type": "Feature", "properties": { "Name": "Halcyon Gallery I", "Borough": "Westminster", "Address": "144-146 New Bond Street", "Type": "Commercial Galleries" }, "geometry": { "type": "Point", "coordinates": [ -0.142399088, 51.51088789 ] } },
{ "type": "Feature", "properties": { "Name": "PM/AM", "Borough": "Westminster", "Address": "259-269 Old Marylebone Road", "Type": "Commercial Galleries" }, "geometry": { "type": "Point", "coordinates": [ -0.165185374, 51.51772196 ] } },
{ "type": "Feature", "properties": { "Name": "Graham Hunter Gallery", "Borough": "Westminster", "Address": "81 Baker Street", "Type": "Commercial Galleries" }, "geometry": { "type": "Point", "coordinates": [ -0.155342499, 51.5194382 ] } },
{ "type": "Feature", "properties": { "Name": "Sims Reed Gallery", "Borough": "Westminster", "Address": "The Economist Building", "Type": "Commercial Galleries" }, "geometry": { "type": "Point", "coordinates": [ -0.137207443, 51.50638098 ] } },
{ "type": "Feature", "properties": { "Name": "Sadie Coles HQ", "Borough": "Westminster", "Address": "62 Kingly Street", "Type": "Commercial Galleries" }, "geometry": { "type": "Point", "coordinates": [ -0.137490282, 51.51179933 ] } },
{ "type": "Feature", "properties": { "Name": "Waddington Custot Galleries", "Borough": "Westminster", "Address": "11 Cork Street", "Type": "Commercial Galleries" }, "geometry": { "type": "Point", "coordinates": [ -0.140015737, 51.50960001 ] } },
{ "type": "Feature", "properties": { "Name": "Berrd Jacobson Gallery", "Borough": "Westminster", "Address": "6 Cork Street", "Type": "Commercial Galleries" }, "geometry": { "type": "Point", "coordinates": [ -0.140343849, 51.51003691 ] } },
{ "type": "Feature", "properties": { "Name": "Michael Werner Gallery", "Borough": "Westminster", "Address": "22 Upper Brook Street", "Type": "Commercial Galleries" }, "geometry": { "type": "Point", "coordinates": [ -0.154493399, 51.51084502 ] } },
{ "type": "Feature", "properties": { "Name": "Hauser & Wirth 2", "Borough": "Westminster", "Address": "23 Saville Row", "Type": "Commercial Galleries" }, "geometry": { "type": "Point", "coordinates": [ -0.139218286, 51.511485 ] } },
{ "type": "Feature", "properties": { "Name": "Great Western Studios", "Borough": "Westminster", "Address": "65 Alfred Street", "Type": "Commercial Galleries" }, "geometry": { "type": "Point", "coordinates": [ -0.194734461, 51.52068971 ] } },
{ "type": "Feature", "properties": { "Name": "David Gill", "Borough": "Westminster", "Address": "2-4 King Street", "Type": "Commercial Galleries" }, "geometry": { "type": "Point", "coordinates": [ -0.135338243, 51.50626107 ] } },
{ "type": "Feature", "properties": { "Name": "Thomas Dane Gallery", "Borough": "Westminster", "Address": "11 Duke Street", "Type": "Commercial Galleries" }, "geometry": { "type": "Point", "coordinates": [ -0.135964335, 51.50681063 ] } },
{ "type": "Feature", "properties": { "Name": "Alison Jacques Gallery", "Borough": "Westminster", "Address": "16-18 Berners Street", "Type": "Commercial Galleries" }, "geometry": { "type": "Point", "coordinates": [ -0.134973061, 51.51696659 ] } },
{ "type": "Feature", "properties": { "Name": "Fold", "Borough": "Camden", "Address": "158 New Cavendish Street", "Type": "Commercial Galleries" }, "geometry": { "type": "Point", "coordinates": [ -0.137861027, 51.52002532 ] } },
{ "type": "Feature", "properties": { "Name": "Annely Juda Fine Art", "Borough": "Westminster", "Address": "4th floor", "Type": "Commercial Galleries" }, "geometry": { "type": "Point", "coordinates": [ -0.14394044, 51.51374527 ] } },
{ "type": "Feature", "properties": { "Name": "Gagosian Gallery 2", "Borough": "Westminster", "Address": "17-19 Davies Street", "Type": "Commercial Galleries" }, "geometry": { "type": "Point", "coordinates": [ -0.146160507, 51.51054271 ] } },
{ "type": "Feature", "properties": { "Name": "Pangolin London", "Borough": "Islington", "Address": "90 York Way", "Type": "Commercial Galleries" }, "geometry": { "type": "Point", "coordinates": [ -0.119966009, 51.53448925 ] } },
{ "type": "Feature", "properties": { "Name": "Maestro Arts", "Borough": "Wandsworth", "Address": "One Eastfields Avenue", "Type": "Commercial Galleries" }, "geometry": { "type": "Point", "coordinates": [ -0.196558984, 51.46135157 ] } },
{ "type": "Feature", "properties": { "Name": "Asia House", "Borough": "Westminster", "Address": "63 New Cavendish Street", "Type": "Commercial Galleries" }, "geometry": { "type": "Point", "coordinates": [ -0.144641359, 51.51919745 ] } },
{ "type": "Feature", "properties": { "Name": "Coningsby Gallery", "Borough": "Camden", "Address": "30 Tottenham Street", "Type": "Commercial Galleries" }, "geometry": { "type": "Point", "coordinates": [ -0.13453787, 51.51985559 ] } },
{ "type": "Feature", "properties": { "Name": "Newport Street", "Borough": "Lambeth", "Address": "3 Newport Street", "Type": "Commercial Galleries" }, "geometry": { "type": "Point", "coordinates": [ -0.11539545, 51.49291799 ] } },
{ "type": "Feature", "properties": { "Name": "Danielle Arud", "Borough": "Lambeth", "Address": "123 Kennington Road", "Type": "Commercial Galleries" }, "geometry": { "type": "Point", "coordinates": [ -0.108869727, 51.4942894 ] } },
{ "type": "Feature", "properties": { "Name": "Lisson Gallery 2", "Borough": "Westminster", "Address": "27 Bell St", "Type": "Commercial Galleries" }, "geometry": { "type": "Point", "coordinates": [ -0.168076534, 51.52039326 ] } },
{ "type": "Feature", "properties": { "Name": "Fiumano Fine Art", "Borough": "Westminster", "Address": "27 Conught Street", "Type": "Commercial Galleries" }, "geometry": { "type": "Point", "coordinates": [ -0.163910995, 51.51392473 ] } },
{ "type": "Feature", "properties": { "Name": "The Residence", "Borough": "Hackney", "Address": "229 Victoria Park Road", "Type": "Commercial Galleries" }, "geometry": { "type": "Point", "coordinates": [ -0.042557202, 51.53781866 ] } },
{ "type": "Feature", "properties": { "Name": "Morley College Gallery", "Borough": "Southwark", "Address": "61 Westminster Bridge Road", "Type": "Commercial Galleries" }, "geometry": { "type": "Point", "coordinates": [ -0.108367728, 51.49736611 ] } },
{ "type": "Feature", "properties": { "Name": "Gasworks Gallery", "Borough": "Lambeth", "Address": "155 Vauxhall Street", "Type": "Commercial Galleries" }, "geometry": { "type": "Point", "coordinates": [ -0.113850591, 51.48462055 ] } },
{ "type": "Feature", "properties": { "Name": "Foss Fine Art", "Borough": "Wandsworth", "Address": "113b Northcote Road", "Type": "Commercial Galleries" }, "geometry": { "type": "Point", "coordinates": [ -0.163651714, 51.45655973 ] } },
{ "type": "Feature", "properties": { "Name": "Northcote Gallery Battersea", "Borough": "Wandsworth", "Address": "110 Northcote Road", "Type": "Commercial Galleries" }, "geometry": { "type": "Point", "coordinates": [ -0.164206711, 51.45636157 ] } },
{ "type": "Feature", "properties": { "Name": "Kristin Hjellegjerde", "Borough": "Wandsworth", "Address": "533 Old York Road", "Type": "Commercial Galleries" }, "geometry": { "type": "Point", "coordinates": [ -0.187224359, 51.45930095 ] } },
{ "type": "Feature", "properties": { "Name": "The Osborne Studio Gallery", "Borough": "Westminster", "Address": "2 Motcomb Street", "Type": "Commercial Galleries" }, "geometry": { "type": "Point", "coordinates": [ -0.155013173, 51.49869392 ] } },
{ "type": "Feature", "properties": { "Name": "Alan Cristea Gallery", "Borough": "Westminster", "Address": "43 Pall Mall", "Type": "Commercial Galleries" }, "geometry": { "type": "Point", "coordinates": [ -0.134602456, 51.50557485 ] } },
{ "type": "Feature", "properties": { "Name": "Paisnel Gallery", "Borough": "Westminster", "Address": "9 Bury Street", "Type": "Commercial Galleries" }, "geometry": { "type": "Point", "coordinates": [ -0.136578309, 51.5062448 ] } },
{ "type": "Feature", "properties": { "Name": "Sladmore", "Borough": "Westminster", "Address": "57 Jermyn Street", "Type": "Commercial Galleries" }, "geometry": { "type": "Point", "coordinates": [ -0.13794979, 51.50724689 ] } },
{ "type": "Feature", "properties": { "Name": "Chris Beetles", "Borough": "Westminster", "Address": "8 & 10 Ryder Street", "Type": "Commercial Galleries" }, "geometry": { "type": "Point", "coordinates": [ -0.136678491, 51.50661513 ] } },
{ "type": "Feature", "properties": { "Name": "Photofusion Gallery", "Borough": "Lambeth", "Address": "17A Electric Ln", "Type": "Commercial Galleries" }, "geometry": { "type": "Point", "coordinates": [ -0.11233368, 51.46135658 ] } },
{ "type": "Feature", "properties": { "Name": "Two Temple Place", "Borough": "City of London", "Address": "2 Temple Place", "Type": "Commercial Galleries" }, "geometry": { "type": "Point", "coordinates": [ -0.11063857, 51.51109098 ] } },
{ "type": "Feature", "properties": { "Name": "Atlas Gallery", "Borough": "Westminster", "Address": "49 Dorset Street", "Type": "Commercial Galleries" }, "geometry": { "type": "Point", "coordinates": [ -0.153774859, 51.51899084 ] } },
{ "type": "Feature", "properties": { "Name": "Fashion Space Gallery", "Borough": "Westminster", "Address": "London College of Fashion", "Type": "Commercial Galleries" }, "geometry": { "type": "Point", "coordinates": [ -0.141693122, 51.51513066 ] } },
{ "type": "Feature", "properties": { "Name": "Pi Artworks", "Borough": "Westminster", "Address": "55 Eastcastle Street", "Type": "Commercial Galleries" }, "geometry": { "type": "Point", "coordinates": [ -0.13653005, 51.51590312 ] } },
{ "type": "Feature", "properties": { "Name": "Pilar Corrias", "Borough": "Westminster", "Address": "54 Eastcastle Street", "Type": "Commercial Galleries" }, "geometry": { "type": "Point", "coordinates": [ -0.136616849, 51.5158955 ] } },
{ "type": "Feature", "properties": { "Name": "Ronchini Gallery", "Borough": "Westminster", "Address": "22 Dering Street", "Type": "Commercial Galleries" }, "geometry": { "type": "Point", "coordinates": [ -0.14394044, 51.51374527 ] } },
{ "type": "Feature", "properties": { "Name": "Flowers Gallery Central", "Borough": "Westminster", "Address": "21 Cork Street", "Type": "Commercial Galleries" }, "geometry": { "type": "Point", "coordinates": [ -0.13945254, 51.50962705 ] } },
{ "type": "Feature", "properties": { "Name": "Erskine Hall & Coe", "Borough": "Westminster", "Address": "15 Royal Arcade", "Type": "Commercial Galleries" }, "geometry": { "type": "Point", "coordinates": [ -0.140086644, 51.50856688 ] } },
{ "type": "Feature", "properties": { "Name": "David Zwimer", "Borough": "Westminster", "Address": "24 Grafton Street", "Type": "Commercial Galleries" }, "geometry": { "type": "Point", "coordinates": [ -0.141425169, 51.50896583 ] } },
{ "type": "Feature", "properties": { "Name": "Colghi", "Borough": "Westminster", "Address": "15 Old Bond Street", "Type": "Commercial Galleries" }, "geometry": { "type": "Point", "coordinates": [ -0.138992012, 51.50854951 ] } },
{ "type": "Feature", "properties": { "Name": "Gazelli Art House", "Borough": "Westminster", "Address": "39 Dover Street", "Type": "Commercial Galleries" }, "geometry": { "type": "Point", "coordinates": [ -0.140809096, 51.50781388 ] } },
{ "type": "Feature", "properties": { "Name": "SprÃ¼th Magers", "Borough": "Westminster", "Address": "7 Grafton Street", "Type": "Commercial Galleries" }, "geometry": { "type": "Point", "coordinates": [ -0.142168061, 51.50948124 ] } },
{ "type": "Feature", "properties": { "Name": "D-Contemporary", "Borough": "Westminster", "Address": "23 Grafton Street", "Type": "Commercial Galleries" }, "geometry": { "type": "Point", "coordinates": [ -0.141480221, 51.50902966 ] } },
{ "type": "Feature", "properties": { "Name": "Sadie Coles HQ Davies Street", "Borough": "Westminster", "Address": "1 Davies Street", "Type": "Commercial Galleries" }, "geometry": { "type": "Point", "coordinates": [ -0.149965329, 51.50805762 ] } },
{ "type": "Feature", "properties": { "Name": "Hamiltons Gallery", "Borough": "Westminster", "Address": "13 Carlos Place", "Type": "Commercial Galleries" }, "geometry": { "type": "Point", "coordinates": [ -0.148368465, 51.51011892 ] } },
{ "type": "Feature", "properties": { "Name": "Galeries Bartoux", "Borough": "Westminster", "Address": "104 New Bond Street", "Type": "Commercial Galleries" }, "geometry": { "type": "Point", "coordinates": [ -0.144603469, 51.51303628 ] } },
{ "type": "Feature", "properties": { "Name": "Greenwich Printmakers Gallery", "Borough": "Greenwich", "Address": "1a Greenwich Market", "Type": "Commercial Galleries" }, "geometry": { "type": "Point", "coordinates": [ -0.007576419, 51.48085705 ] } },
{ "type": "Feature", "properties": { "Name": "Crypt Museum", "Borough": "Tower Hamlets", "Address": "Byward Street", "Type": "Commercial Galleries" }, "geometry": { "type": "Point", "coordinates": [ -0.0775982, 51.50881823 ] } },
{ "type": "Feature", "properties": { "Name": "Brocket Gallery", "Borough": "Lambeth", "Address": "16 Windmill Row", "Type": "Commercial Galleries" }, "geometry": { "type": "Point", "coordinates": [ -0.110229078, 51.48650486 ] } },
{ "type": "Feature", "properties": { "Name": "Victoria Miro Gallery I", "Borough": "Hackney", "Address": "16 Wharf Road", "Type": "Commercial Galleries" }, "geometry": { "type": "Point", "coordinates": [ -0.093410366, 51.52981876 ] } },
{ "type": "Feature", "properties": { "Name": "White Cube", "Borough": "Southwark", "Address": "144-152 Bermondsey Street", "Type": "Commercial Galleries" }, "geometry": { "type": "Point", "coordinates": [ -0.081068884, 51.49893711 ] } },
{ "type": "Feature", "properties": { "Name": "Flat Time House", "Borough": "Southwark", "Address": "210 Bellenden Road", "Type": "Commercial Galleries" }, "geometry": { "type": "Point", "coordinates": [ -0.072576615, 51.46558419 ] } },
{ "type": "Feature", "properties": { "Name": "Arch Collective", "Borough": "Southwark", "Address": "Arch 12", "Type": "Commercial Galleries" }, "geometry": { "type": "Point", "coordinates": [ -0.057705715, 51.49160932 ] } },
{ "type": "Feature", "properties": { "Name": "Jerwood Space Gallery", "Borough": "Southwark", "Address": "171 Union Street", "Type": "Commercial Galleries" }, "geometry": { "type": "Point", "coordinates": [ -0.09749519, 51.50309902 ] } },
{ "type": "Feature", "properties": { "Name": "Contemporary Applied Arts", "Borough": "Westminster", "Address": "6 Paddington Street", "Type": "Commercial Galleries" }, "geometry": { "type": "Point", "coordinates": [ -0.15255372, 51.520921 ] } },
{ "type": "Feature", "properties": { "Name": "Cardi Gallery London", "Borough": "Westminster", "Address": "22 Grafton Street", "Type": "Commercial Galleries" }, "geometry": { "type": "Point", "coordinates": [ -0.14314012, 51.509603 ] } },
{ "type": "Feature", "properties": { "Name": "Maureen Paley", "Borough": "Tower Hamlets", "Address": "60 Three Colts Lane", "Type": "Commercial Galleries" }, "geometry": { "type": "Point", "coordinates": [ -0.05566, 51.52459 ] } },
{ "type": "Feature", "properties": { "Name": "Arebyte", "Borough": "Tower Hamlets", "Address": "Java House", "Type": "Commercial Galleries" }, "geometry": { "type": "Point", "coordinates": [ 0.005352869, 51.511286 ] } },
{ "type": "Feature", "properties": { "Name": "Modern Art", "Borough": "Westminster", "Address": "7 Bury Street", "Type": "Commercial Galleries" }, "geometry": { "type": "Point", "coordinates": [ -0.13811417, 51.506691 ] } },
{ "type": "Feature", "properties": { "Name": "Michael Hoppen Gallery", "Borough": "Kensington and Chelsea", "Address": "Unit 10, Pall Mall Deposit", "Type": "Commercial Galleries" }, "geometry": { "type": "Point", "coordinates": [ -0.21889938, 51.523233 ] } },
{ "type": "Feature", "properties": { "Name": "London Mithraeum Bloomberg SPACE", "Borough": "City of London", "Address": "12 Wallbrook", "Type": "Commercial Galleries" }, "geometry": { "type": "Point", "coordinates": [ -0.090595407, 51.51242 ] } },
{ "type": "Feature", "properties": { "Name": "Parasol unit", "Borough": "Camden", "Address": "32 Fitzroy Square", "Type": "Commercial Galleries" }, "geometry": { "type": "Point", "coordinates": [ -0.14057255, 51.522404 ] } },
{ "type": "Feature", "properties": { "Name": "Five Years", "Borough": "Islington", "Address": "Unit 2B1", "Type": "Commercial Galleries" }, "geometry": { "type": "Point", "coordinates": [ -0.13163513, 51.565714 ] } },
{ "type": "Feature", "properties": { "Name": "Rocket Gallery", "Borough": "Hackney", "Address": "4-6 Sheep Lane", "Type": "Commercial Galleries" }, "geometry": { "type": "Point", "coordinates": [ -0.060076278, 51.535021 ] } },
{ "type": "Feature", "properties": { "Name": "Unit G Gallery", "Borough": "Tower Hamlets", "Address": "Vittoria Wharf", "Type": "Commercial Galleries" }, "geometry": { "type": "Point", "coordinates": [ -0.02122, 51.53968 ] } },
{ "type": "Feature", "properties": { "Name": "BSMT Space", "Borough": "Hackney", "Address": "529 Kingsland Road", "Type": "Commercial Galleries" }, "geometry": { "type": "Point", "coordinates": [ -0.075975007, 51.54575 ] } },
{ "type": "Feature", "properties": { "Name": "Workplace Gallery", "Borough": "Westminster", "Address": "40 Margaret Street", "Type": "Commercial Galleries" }, "geometry": { "type": "Point", "coordinates": [ -0.14275555, 51.516225 ] } },
{ "type": "Feature", "properties": { "Name": "Paradise Row", "Borough": "Westminster", "Address": "2 Bourdon Street", "Type": "Commercial Galleries" }, "geometry": { "type": "Point", "coordinates": [ -0.14688727, 51.510661 ] } },
{ "type": "Feature", "properties": { "Name": "Edel Assanti", "Borough": "Westminster", "Address": "1B Little Titchfield Street", "Type": "Commercial Galleries" }, "geometry": { "type": "Point", "coordinates": [ -0.14092365, 51.51803 ] } },
{ "type": "Feature", "properties": { "Name": "Muccaccia Gallery London", "Borough": "Westminster", "Address": "21 Dering Street", "Type": "Commercial Galleries" }, "geometry": { "type": "Point", "coordinates": [ -0.14554521, 51.514255 ] } },
{ "type": "Feature", "properties": { "Name": "James Hyman Fine Art", "Borough": "Westminster", "Address": "48 & 50 Maddox Street", "Type": "Commercial Galleries" }, "geometry": { "type": "Point", "coordinates": [ -0.14385525, 51.512573 ] } },
{ "type": "Feature", "properties": { "Name": "Aktis Gallery", "Borough": "Westminster", "Address": "50 Jermyn Street", "Type": "Commercial Galleries" }, "geometry": { "type": "Point", "coordinates": [ -0.13875522, 51.507933 ] } },
{ "type": "Feature", "properties": { "Name": "The Sunday Painter", "Borough": "Lambeth", "Address": "117-119 South Lambeth Road", "Type": "Commercial Galleries" }, "geometry": { "type": "Point", "coordinates": [ -0.12345154, 51.479165 ] } },
{ "type": "Feature", "properties": { "Name": "Beers London", "Borough": "City of London", "Address": "51 Little Britain", "Type": "Commercial Galleries" }, "geometry": { "type": "Point", "coordinates": [ -0.099874759, 51.518353 ] } },
{ "type": "Feature", "properties": { "Name": "Plus One Gallery", "Borough": "Hammersmith and Fulham", "Address": "The Piper Building", "Type": "Commercial Galleries" }, "geometry": { "type": "Point", "coordinates": [ -0.19315, 51.4659 ] } },
{ "type": "Feature", "properties": { "Name": "Pace London 1", "Borough": "Westminster", "Address": "5 Hanover Square", "Type": "Commercial Galleries" }, "geometry": { "type": "Point", "coordinates": [ -0.14309434, 51.513919 ] } },
{ "type": "Feature", "properties": { "Name": "Highgate Contemporary Art", "Borough": "Haringey", "Address": "Unit B307, The Chocolate Factory", "Type": "Commercial Galleries" }, "geometry": { "type": "Point", "coordinates": [ -0.11491639, 51.594564 ] } },
{ "type": "Feature", "properties": { "Name": "Eleven", "Borough": "Richmond upon Thames", "Address": "17 Gothic Road", "Type": "Commercial Galleries" }, "geometry": { "type": "Point", "coordinates": [ -0.3492755, 51.442456 ] } },
{ "type": "Feature", "properties": { "Name": "La Galleria", "Borough": "Wandsworth", "Address": "298 Garratt Lane", "Type": "Commercial Galleries" }, "geometry": { "type": "Point", "coordinates": [ -0.19064344, 51.444332 ] } },
{ "type": "Feature", "properties": { "Name": "Stephen Wiltshire Gallery", "Borough": "Westminster", "Address": "22 Palace Court", "Type": "Commercial Galleries" }, "geometry": { "type": "Point", "coordinates": [ -0.19195961, 51.511535 ] } },
{ "type": "Feature", "properties": { "Name": "Panter and Hall", "Borough": "Westminster", "Address": "11-12 Pall Mall", "Type": "Commercial Galleries" }, "geometry": { "type": "Point", "coordinates": [ -0.13331222, 51.507127 ] } },
{ "type": "Feature", "properties": { "Name": "Art First", "Borough": "Lambeth", "Address": "The Forge", "Type": "Commercial Galleries" }, "geometry": { "type": "Point", "coordinates": [ -0.10849388, 51.493655 ] } },
{ "type": "Feature", "properties": { "Name": "The Fine Art Society", "Borough": "Westminster", "Address": "25 Carby Street", "Type": "Commercial Galleries" }, "geometry": { "type": "Point", "coordinates": [ -0.13894984, 51.513413 ] } },
{ "type": "Feature", "properties": { "Name": "Timothy Taylor Gallery", "Borough": "Westminster", "Address": "15 Bolton Street", "Type": "Commercial Galleries" }, "geometry": { "type": "Point", "coordinates": [ -0.14443075, 51.507277 ] } },
{ "type": "Feature", "properties": { "Name": "Andor Gallery", "Borough": "Hackney", "Address": "19 Ridley Road", "Type": "Commercial Galleries" }, "geometry": { "type": "Point", "coordinates": [ -0.073827857, 51.54844 ] } },
{ "type": "Feature", "properties": { "Name": "Adrian Sassoon Gallery", "Borough": "Westminster", "Address": "14 Rutland Gate", "Type": "Commercial Galleries" }, "geometry": { "type": "Point", "coordinates": [ -0.16868269, 51.501174 ] } },
{ "type": "Feature", "properties": { "Name": "Five Years", "Borough": "Southwark", "Address": "4 Holly Grove", "Type": "Commercial Galleries" }, "geometry": { "type": "Point", "coordinates": [ -0.069648394, 51.470288 ] } },
{ "type": "Feature", "properties": { "Name": "Rhodes Contemporary Art", "Borough": "Camden", "Address": "3-5 Swallow Street", "Type": "Commercial Galleries" }, "geometry": { "type": "Point", "coordinates": [ -0.12764022, 51.515427 ] } },
{ "type": "Feature", "properties": { "Name": "Catharine Miller Gallery", "Borough": "Kensington and Chelsea", "Address": "Hollywood Road Gallery", "Type": "Commercial Galleries" }, "geometry": { "type": "Point", "coordinates": [ -0.18471524, 51.486038 ] } },
{ "type": "Feature", "properties": { "Name": "Frith Street Gallery Soho Square", "Borough": "Westminster", "Address": "60 Frith Street", "Type": "Commercial Galleries" }, "geometry": { "type": "Point", "coordinates": [ -0.13215783, 51.514213 ] } },
{ "type": "Feature", "properties": { "Name": "Pontone Gallery", "Borough": "Westminster", "Address": "74 Newman Street", "Type": "Commercial Galleries" }, "geometry": { "type": "Point", "coordinates": [ -0.1359386, 51.517627 ] } },
{ "type": "Feature", "properties": { "Name": "Kristin Hjellegjerde Gallery (London Bridge)", "Borough": "Southwark", "Address": "2 Melior Place", "Type": "Commercial Galleries" }, "geometry": { "type": "Point", "coordinates": [ -0.08427, 51.50237 ] } },
{ "type": "Feature", "properties": { "Name": "Sadie Coles HQ Brury Street", "Borough": "Westminster", "Address": "8 Bury Street", "Type": "Commercial Galleries" }, "geometry": { "type": "Point", "coordinates": [ -0.13811417, 51.506691 ] } },
{ "type": "Feature", "properties": { "Name": "Ronchini Gallery", "Borough": "Westminster", "Address": "22 Dering Street", "Type": "Commercial Galleries" }, "geometry": { "type": "Point", "coordinates": [ -0.14626, 51.51416 ] } },
{ "type": "Feature", "properties": { "Name": "Gaglirdi Gallery", "Borough": "Kensington and Chelsea", "Address": "509 King's Road", "Type": "Commercial Galleries" }, "geometry": { "type": "Point", "coordinates": [ -0.18390032, 51.480809 ] } },
{ "type": "Feature", "properties": { "Name": "Tanya Baxter Contemporary", "Borough": "Kensington and Chelsea", "Address": "436 King's Road", "Type": "Commercial Galleries" }, "geometry": { "type": "Point", "coordinates": [ -0.17777014, 51.483214 ] } },
{ "type": "Feature", "properties": { "Name": "Eclectic Gallery", "Borough": "Westminster", "Address": "16 Newman Street", "Type": "Commercial Galleries" }, "geometry": { "type": "Point", "coordinates": [ -0.13514665, 51.517255 ] } },
{ "type": "Feature", "properties": { "Name": "Hales London", "Borough": "Hackney", "Address": "7 Bethl Green Road", "Type": "Commercial Galleries" }, "geometry": { "type": "Point", "coordinates": [ -0.07622, 51.52373 ] } },
{ "type": "Feature", "properties": { "Name": "Herald St (Shoreditch)", "Borough": "Tower Hamlets", "Address": "2 Herald Street", "Type": "Commercial Galleries" }, "geometry": { "type": "Point", "coordinates": [ -0.0555633, 51.524865 ] } },
{ "type": "Feature", "properties": { "Name": "Herald St (Camden)", "Borough": "Camden", "Address": "43 Museum Street", "Type": "Commercial Galleries" }, "geometry": { "type": "Point", "coordinates": [ -0.12532617, 51.517728 ] } },
{ "type": "Feature", "properties": { "Name": "Ojiri Gallery", "Borough": "Hackney", "Address": "29 Charlotte Road", "Type": "Commercial Galleries" }, "geometry": { "type": "Point", "coordinates": [ -0.081375219, 51.525371 ] } },
{ "type": "Feature", "properties": { "Name": "Kate MacGarry", "Borough": "Tower Hamlets", "Address": "27 Old Nichol Street", "Type": "Commercial Galleries" }, "geometry": { "type": "Point", "coordinates": [ -0.075435373, 51.524699 ] } },
{ "type": "Feature", "properties": { "Name": "Annka Kultys Gallery", "Borough": "Tower Hamlets", "Address": "Unit 9", "Type": "Commercial Galleries" }, "geometry": { "type": "Point", "coordinates": [ -0.05829, 51.53214 ] } },
{ "type": "Feature", "properties": { "Name": "Yield Gallery", "Borough": "Camden", "Address": "Floor 2", "Type": "Commercial Galleries" }, "geometry": { "type": "Point", "coordinates": [ -0.12946, 51.51513 ] } },
{ "type": "Feature", "properties": { "Name": "Gallery Different", "Borough": "Camden", "Address": "14 Percy Street", "Type": "Commercial Galleries" }, "geometry": { "type": "Point", "coordinates": [ -0.13294012, 51.518344 ] } },
{ "type": "Feature", "properties": { "Name": "Eden Gallery", "Borough": "Westminster", "Address": "103 New Bond Street", "Type": "Commercial Galleries" }, "geometry": { "type": "Point", "coordinates": [ -0.14634997, 51.513602 ] } },
{ "type": "Feature", "properties": { "Name": "Delahunty Fine Art", "Borough": "Westminster", "Address": "29 Bruton St", "Type": "Commercial Galleries" }, "geometry": { "type": "Point", "coordinates": [ -0.14473518, 51.51078 ] } },
{ "type": "Feature", "properties": { "Name": "Albermarle Gallery", "Borough": "Westminster", "Address": "Lower Ground Floor", "Type": "Commercial Galleries" }, "geometry": { "type": "Point", "coordinates": [ -0.1359386, 51.517627 ] } },
{ "type": "Feature", "properties": { "Name": "ONEROOM Gallery", "Borough": "Hackney", "Address": "9 French Place", "Type": "Commercial Galleries" }, "geometry": { "type": "Point", "coordinates": [ -0.078425034, 51.525593 ] } },
{ "type": "Feature", "properties": { "Name": "Zari Gallery", "Borough": "Westminster", "Address": "73 Newman Street", "Type": "Commercial Galleries" }, "geometry": { "type": "Point", "coordinates": [ -0.13600915, 51.517664 ] } },
{ "type": "Feature", "properties": { "Name": "Tsivrikos Shake", "Borough": "Westminster", "Address": "97 New Bond Street", "Type": "Commercial Galleries" }, "geometry": { "type": "Point", "coordinates": [ -0.14646865, 51.513874 ] } },
{ "type": "Feature", "properties": { "Name": "Carlos Ishikawa", "Borough": "Tower Hamlets", "Address": "Unit 4, Cook's Yard", "Type": "Commercial Galleries" }, "geometry": { "type": "Point", "coordinates": [ -0.0520063, 51.520049 ] } },
{ "type": "Feature", "properties": { "Name": "New Art Projects ", "Borough": "Hackney", "Address": "6D Sheep Ln", "Type": "Commercial Galleries" }, "geometry": { "type": "Point", "coordinates": [ -0.060076278, 51.535021 ] } },
{ "type": "Feature", "properties": { "Name": "Almine Rech", "Borough": "Westminster", "Address": "Broadbent House", "Type": "Commercial Galleries" }, "geometry": { "type": "Point", "coordinates": [ -0.14664516, 51.511655 ] } },
{ "type": "Feature", "properties": { "Name": "Dellasposa", "Borough": "Westminster", "Address": "2a Bathurst St", "Type": "Commercial Galleries" }, "geometry": { "type": "Point", "coordinates": [ -0.17492953, 51.512872 ] } },
{ "type": "Feature", "properties": { "Name": "Belmacz", "Borough": "Westminster", "Address": "45 Davies Street", "Type": "Commercial Galleries" }, "geometry": { "type": "Point", "coordinates": [ -0.14840153, 51.512411 ] } },
{ "type": "Feature", "properties": { "Name": "Arcadia Missa", "Borough": "Westminster", "Address": "35 Duke Street", "Type": "Commercial Galleries" }, "geometry": { "type": "Point", "coordinates": [ -0.15159604, 51.515025 ] } },
{ "type": "Feature", "properties": { "Name": "Sarah Myerscough Gallery", "Borough": "Richmond upon Thames", "Address": "The Old Boathouse", "Type": "Commercial Galleries" }, "geometry": { "type": "Point", "coordinates": [ -0.25548509, 51.470772 ] } },
{ "type": "Feature", "properties": { "Name": "Felix & Spear", "Borough": "Ealing", "Address": "71 St. Mary's Road", "Type": "Commercial Galleries" }, "geometry": { "type": "Point", "coordinates": [ -0.30515836, 51.504988 ] } },
{ "type": "Feature", "properties": { "Name": "Studio West", "Borough": "Kensington and Chelsea", "Address": "Unit 1, 216 Kensington Park Road", "Type": "Commercial Galleries" }, "geometry": { "type": "Point", "coordinates": [ -0.20607, 51.5164 ] } },
{ "type": "Feature", "properties": { "Name": "The Muse", "Borough": "Kensington and Chelsea", "Address": "269 Portobello Road", "Type": "Commercial Galleries" }, "geometry": { "type": "Point", "coordinates": [ -0.20683, 51.51792 ] } },
{ "type": "Feature", "properties": { "Name": "Cecilia Brunson Projects", "Borough": "Southwark", "Address": "2G Royal Oak Yard", "Type": "Commercial Galleries" }, "geometry": { "type": "Point", "coordinates": [ -0.082382679, 51.498986 ] } },
{ "type": "Feature", "properties": { "Name": "Corvi-Mora", "Borough": "Lambeth", "Address": "1a Kempsford Road (off Wincott Street)", "Type": "Commercial Galleries" }, "geometry": { "type": "Point", "coordinates": [ -0.1085242, 51.491182 ] } },
{ "type": "Feature", "properties": { "Name": "EMALIN", "Borough": "Hackney", "Address": "1 Holywell Lane", "Type": "Commercial Galleries" }, "geometry": { "type": "Point", "coordinates": [ -0.077589364, 51.523871 ] } },
{ "type": "Feature", "properties": { "Name": "Goodman Gallery", "Borough": "Westminster", "Address": "26 Cork Street", "Type": "Commercial Galleries" }, "geometry": { "type": "Point", "coordinates": [ -0.14126892, 51.510257 ] } },
{ "type": "Feature", "properties": { "Name": "Gossamer Fog", "Borough": "Lewisham", "Address": "BST 186a Deptford High Street", "Type": "Commercial Galleries" }, "geometry": { "type": "Point", "coordinates": [ -0.026114803, 51.480444 ] } },
{ "type": "Feature", "properties": { "Name": "greengrassi", "Borough": "Lambeth", "Address": "1a Kempsford Road", "Type": "Commercial Galleries" }, "geometry": { "type": "Point", "coordinates": [ -0.1085242, 51.491182 ] } },
{ "type": "Feature", "properties": { "Name": "HackelBury Fine Art", "Borough": "Kensington and Chelsea", "Address": "4 Launceston Place", "Type": "Commercial Galleries" }, "geometry": { "type": "Point", "coordinates": [ -0.18536596, 51.499033 ] } },
{ "type": "Feature", "properties": { "Name": "Hazlitt Holland-Hibbert", "Borough": "Westminster", "Address": "37-38 Bury Street", "Type": "Commercial Galleries" }, "geometry": { "type": "Point", "coordinates": [ -0.13835337, 51.506479 ] } },
{ "type": "Feature", "properties": { "Name": "Hignell Gallery", "Borough": "Westminster", "Address": "12 - 14 Shepherd Street", "Type": "Commercial Galleries" }, "geometry": { "type": "Point", "coordinates": [ -0.14699138, 51.506319 ] } },
{ "type": "Feature", "properties": { "Name": "Huxley-Parlour", "Borough": "Westminster", "Address": "3-5 Swallow Street", "Type": "Commercial Galleries" }, "geometry": { "type": "Point", "coordinates": [ -0.13743589, 51.509189 ] } },
{ "type": "Feature", "properties": { "Name": "Jack Bell", "Borough": "Westminster", "Address": "13 Mason's Yard", "Type": "Commercial Galleries" }, "geometry": { "type": "Point", "coordinates": [ -0.13704737, 51.507762 ] } },
{ "type": "Feature", "properties": { "Name": "JD Malat Gallery", "Borough": "Westminster", "Address": "30 Davies Street", "Type": "Commercial Galleries" }, "geometry": { "type": "Point", "coordinates": [ -0.14777164, 51.511952 ] } },
{ "type": "Feature", "properties": { "Name": "Karsten Schubert London", "Borough": "Westminster", "Address": "Room 2, 44 Lexington Street", "Type": "Commercial Galleries" }, "geometry": { "type": "Point", "coordinates": [ -0.13619624, 51.513081 ] } },
{ "type": "Feature", "properties": { "Name": "KÖNIG London", "Borough": "Westminster", "Address": "259 Old Marylebone Road", "Type": "Commercial Galleries" }, "geometry": { "type": "Point", "coordinates": [ -0.16678788, 51.518231 ] } },
{ "type": "Feature", "properties": { "Name": "LAMB", "Borough": "Westminster", "Address": "32 St. George Street", "Type": "Commercial Galleries" }, "geometry": { "type": "Point", "coordinates": [ -0.1427317, 51.512205 ] } },
{ "type": "Feature", "properties": { "Name": "Luxembourg + Co.", "Borough": "Westminster", "Address": "2 Savile Row", "Type": "Commercial Galleries" }, "geometry": { "type": "Point", "coordinates": [ -0.13949018, 51.510409 ] } },
{ "type": "Feature", "properties": { "Name": "LGDR", "Borough": "Westminster", "Address": "22 Old Bond Street", "Type": "Commercial Galleries" }, "geometry": { "type": "Point", "coordinates": [ -0.14114305, 51.509455 ] } },
{ "type": "Feature", "properties": { "Name": "Lyndsey Ingram", "Borough": "Westminster", "Address": "20 Bourdon Street", "Type": "Commercial Galleries" }, "geometry": { "type": "Point", "coordinates": [ -0.14527, 51.51115 ] } },
{ "type": "Feature", "properties": { "Name": "Maddox Gallery", "Borough": "Westminster", "Address": "9 Maddox Street", "Type": "Commercial Galleries" }, "geometry": { "type": "Point", "coordinates": [ -0.14156259, 51.51331 ] } },
{ "type": "Feature", "properties": { "Name": "MASSIMODECARLO", "Borough": "Westminster", "Address": "55 South Audley Street", "Type": "Commercial Galleries" }, "geometry": { "type": "Point", "coordinates": [ -0.1521696, 51.509755 ] } },
{ "type": "Feature", "properties": { "Name": "Mazzoleni", "Borough": "Westminster", "Address": "15 Old Bond St", "Type": "Commercial Galleries" }, "geometry": { "type": "Point", "coordinates": [ -0.14059713, 51.50906 ] } },
{ "type": "Feature", "properties": { "Name": "MMX Gallery", "Borough": "Lewisham", "Address": "448 New Cross Road", "Type": "Commercial Galleries" }, "geometry": { "type": "Point", "coordinates": [ -0.029348836, 51.475247 ] } },
{ "type": "Feature", "properties": { "Name": "mother's tankstation", "Borough": "Tower Hamlets", "Address": "58-64 Three Colts Lane", "Type": "Commercial Galleries" }, "geometry": { "type": "Point", "coordinates": [ -0.05565, 51.52449 ] } },
{ "type": "Feature", "properties": { "Name": "hmad Projects", "Borough": "Westminster", "Address": "2 Cork St", "Type": "Commercial Galleries" }, "geometry": { "type": "Point", "coordinates": [ -0.14194887, 51.510547 ] } },
{ "type": "Feature", "properties": { "Name": "Opera Gallery", "Borough": "Westminster", "Address": "134 New Bond Street", "Type": "Commercial Galleries" }, "geometry": { "type": "Point", "coordinates": [ -0.14447058, 51.511972 ] } },
{ "type": "Feature", "properties": { "Name": "Parafin Gallery", "Borough": "Westminster", "Address": "18 Woodstock Street", "Type": "Commercial Galleries" }, "geometry": { "type": "Point", "coordinates": [ -0.14748981, 51.513926 ] } },
{ "type": "Feature", "properties": { "Name": "Patrick Heide Contemporary Art", "Borough": "Westminster", "Address": "11 Church Street", "Type": "Commercial Galleries" }, "geometry": { "type": "Point", "coordinates": [ -0.16864545, 51.524383 ] } },
{ "type": "Feature", "properties": { "Name": "Paul Stolper", "Borough": "Camden", "Address": "31 Museum Street", "Type": "Commercial Galleries" }, "geometry": { "type": "Point", "coordinates": [ -0.12603937, 51.51791 ] } },
{ "type": "Feature", "properties": { "Name": "Pippy Houldsworth Gallery", "Borough": "Westminster", "Address": "6 Heddon Street", "Type": "Commercial Galleries" }, "geometry": { "type": "Point", "coordinates": [ -0.13942061, 51.511055 ] } },
{ "type": "Feature", "properties": { "Name": "Project tive Informant", "Borough": "Tower Hamlets", "Address": "Dressage Court", "Type": "Commercial Galleries" }, "geometry": { "type": "Point", "coordinates": [ -0.056302719, 51.524428 ] } },
{ "type": "Feature", "properties": { "Name": "Richard Saltoun Gallery", "Borough": "Westminster", "Address": "41 Dover Street", "Type": "Commercial Galleries" }, "geometry": { "type": "Point", "coordinates": [ -0.14212252, 51.50805 ] } },
{ "type": "Feature", "properties": { "Name": "Rodeo", "Borough": "Westminster", "Address": "12a Bourdon Street", "Type": "Commercial Galleries" }, "geometry": { "type": "Point", "coordinates": [ -0.14568023, 51.51093 ] } },
{ "type": "Feature", "properties": { "Name": "Seen Fifteen", "Borough": "Southwark", "Address": "Studio DG1, The Bussey Building", "Type": "Commercial Galleries" }, "geometry": { "type": "Point", "coordinates": [ -0.065772976, 51.469999 ] } },
{ "type": "Feature", "properties": { "Name": "Seventeen", "Borough": "Hackney", "Address": "270-276 Kingsland Road (Entrance on Acton Mews)", "Type": "Commercial Galleries" }, "geometry": { "type": "Point", "coordinates": [ -0.076250515, 51.53785 ] } },
{ "type": "Feature", "properties": { "Name": "Simon Lee Gallery", "Borough": "Westminster", "Address": "12 Berkeley Street", "Type": "Commercial Galleries" }, "geometry": { "type": "Point", "coordinates": [ -0.14298037, 51.508216 ] } },
{ "type": "Feature", "properties": { "Name": "Stephen Friedman Gallery", "Borough": "Westminster", "Address": "25-28 Old Burlington Street", "Type": "Commercial Galleries" }, "geometry": { "type": "Point", "coordinates": [ -0.14125465, 51.510608 ] } },
{ "type": "Feature", "properties": { "Name": "Stern Pissarro Gallery", "Borough": "Westminster", "Address": "66 St. James's Street", "Type": "Commercial Galleries" }, "geometry": { "type": "Point", "coordinates": [ -0.13924901, 51.506071 ] } },
{ "type": "Feature", "properties": { "Name": "TAFETA", "Borough": "Camden", "Address": "91 Great Russell Street", "Type": "Commercial Galleries" }, "geometry": { "type": "Point", "coordinates": [ -0.12734, 51.51794 ] } },
{ "type": "Feature", "properties": { "Name": "Thaddeus Ropac", "Borough": "Westminster", "Address": "Ely House", "Type": "Commercial Galleries" }, "geometry": { "type": "Point", "coordinates": [ -0.14253664, 51.508497 ] } },
{ "type": "Feature", "properties": { "Name": "The Approach", "Borough": "Tower Hamlets", "Address": "47 Approach Road", "Type": "Commercial Galleries" }, "geometry": { "type": "Point", "coordinates": [ -0.051826309, 51.531359 ] } },
{ "type": "Feature", "properties": { "Name": "San Mei Gallery", "Borough": "Lambeth", "Address": "39a Loughborough Road", "Type": "Commercial Galleries" }, "geometry": { "type": "Point", "coordinates": [ -0.10854377, 51.470868 ] } },
{ "type": "Feature", "properties": { "Name": "Fitztrovia Chapel", "Borough": "Westminster", "Address": "Fitzroy Place", "Type": "Commercial Galleries" }, "geometry": { "type": "Point", "coordinates": [ -0.13833416, 51.518969 ] } },
{ "type": "Feature", "properties": { "Name": "The Gallery of Everything", "Borough": "Westminster", "Address": "4 Chiltern Street", "Type": "Commercial Galleries" }, "geometry": { "type": "Point", "coordinates": [ -0.15455076, 51.518587 ] } },
{ "type": "Feature", "properties": { "Name": "TJ Boulting", "Borough": "Westminster", "Address": "59 Riding House Street", "Type": "Commercial Galleries" }, "geometry": { "type": "Point", "coordinates": [ -0.13940168, 51.519301 ] } },
{ "type": "Feature", "properties": { "Name": "Union Pacific", "Borough": "Tower Hamlets", "Address": "17 Goulston Street", "Type": "Commercial Galleries" }, "geometry": { "type": "Point", "coordinates": [ -0.074993225, 51.51604 ] } },
{ "type": "Feature", "properties": { "Name": "Vigo Gallery", "Borough": "Westminster", "Address": "7-8 Masons Yard", "Type": "Commercial Galleries" }, "geometry": { "type": "Point", "coordinates": [ -0.13730475, 51.507811 ] } },
{ "type": "Feature", "properties": { "Name": "Yamamoto Keiko Rochaix", "Borough": "Tower Hamlets", "Address": "19 Goulston Street", "Type": "Commercial Galleries" }, "geometry": { "type": "Point", "coordinates": [ -0.074993225, 51.51604 ] } },
{ "type": "Feature", "properties": { "Name": "Knight Webb Gallery", "Borough": "Wandsworth", "Address": "58 Battersea Bridge Rd", "Type": "Commercial Galleries" }, "geometry": { "type": "Point", "coordinates": [ -0.17049448, 51.478596 ] } },
{ "type": "Feature", "properties": { "Name": "JGM Gallery", "Borough": "Wandsworth", "Address": "24 Howie St", "Type": "Commercial Galleries" }, "geometry": { "type": "Point", "coordinates": [ -0.16938845, 51.479244 ] } },
{ "type": "Feature", "properties": { "Name": "Quantum Contemporary Art", "Borough": "Wandsworth", "Address": "The Imperial Laundry", "Type": "Commercial Galleries" }, "geometry": { "type": "Point", "coordinates": [ -0.15817, 51.47422 ] } },
{ "type": "Feature", "properties": { "Name": "London Glassblowing ", "Borough": "Southwark", "Address": "62-66 Bermondsey Street", "Type": "Commercial Galleries" }, "geometry": { "type": "Point", "coordinates": [ -0.082574898, 51.501615 ] } },
{ "type": "Feature", "properties": { "Name": "Moarain House", "Borough": "Tower Hamlets", "Address": "223 Cambridge Heath Road", "Type": "Commercial Galleries" }, "geometry": { "type": "Point", "coordinates": [ -0.055429054, 51.524971 ] } },
{ "type": "Feature", "properties": { "Name": "Guts Gallery ", "Borough": "Hackney", "Address": "Unit 2, Sidings House", "Type": "Commercial Galleries" }, "geometry": { "type": "Point", "coordinates": [ -0.062563985, 51.550799 ] } },
{ "type": "Feature", "properties": { "Name": "Unit London", "Borough": "Westminster", "Address": "3 Hanover Square", "Type": "Commercial Galleries" }, "geometry": { "type": "Point", "coordinates": [ -0.14289693, 51.513457 ] } },
{ "type": "Feature", "properties": { "Name": "Sid Motion Gallery", "Borough": "Southwark", "Address": "24a Perth Centre", "Type": "Commercial Galleries" }, "geometry": { "type": "Point", "coordinates": [ -0.05488, 51.48388 ] } },
{ "type": "Feature", "properties": { "Name": "Indigo + Madder", "Borough": "Camden", "Address": "Kirkman House", "Type": "Commercial Galleries" }, "geometry": { "type": "Point", "coordinates": [ -0.13392022, 51.519403 ] } },
{ "type": "Feature", "properties": { "Name": "Bosse & Baum", "Borough": "Southwark", "Address": "Unit BGC", "Type": "Commercial Galleries" }, "geometry": { "type": "Point", "coordinates": [ -0.065772976, 51.469999 ] } },
{ "type": "Feature", "properties": { "Name": "Alice Black", "Borough": "Westminster", "Address": "46 Mortimer St", "Type": "Commercial Galleries" }, "geometry": { "type": "Point", "coordinates": [ -0.14065473, 51.517909 ] } },
{ "type": "Feature", "properties": { "Name": "Taymour Grahne - Holland Park", "Borough": "Kensington and Chelsea", "Address": "10 Portland Road", "Type": "Commercial Galleries" }, "geometry": { "type": "Point", "coordinates": [ -0.20796417, 51.507294 ] } },
{ "type": "Feature", "properties": { "Name": "Taymour Grahne - Holland Park", "Borough": "Kensington and Chelsea", "Address": "1 Lonsdale Road", "Type": "Commercial Galleries" }, "geometry": { "type": "Point", "coordinates": [ -0.19969792, 51.515206 ] } },
{ "type": "Feature", "properties": { "Name": "Taymour Grahne Projects - The Artist Room", "Borough": "Kensington and Chelsea", "Address": "52 Lonsdale Road", "Type": "Commercial Galleries" }, "geometry": { "type": "Point", "coordinates": [ -0.20159024, 51.514732 ] } },
{ "type": "Feature", "properties": { "Name": "DADA Gallery", "Borough": "Kensington and Chelsea", "Address": "4 Cromwell Place", "Type": "Commercial Galleries" }, "geometry": { "type": "Point", "coordinates": [ -0.17460158, 51.495116 ] } },
{ "type": "Feature", "properties": { "Name": "IONE & MANN", "Borough": "Kensington and Chelsea", "Address": "4 Cromwell Place", "Type": "Commercial Galleries" }, "geometry": { "type": "Point", "coordinates": [ -0.17460158, 51.495116 ] } },
{ "type": "Feature", "properties": { "Name": "Addis Fine Art", "Borough": "Westminster", "Address": "21 Eastcastle St", "Type": "Commercial Galleries" }, "geometry": { "type": "Point", "coordinates": [ -0.13798962, 51.516815 ] } },
{ "type": "Feature", "properties": { "Name": "ammann // projects", "Borough": "Kensington and Chelsea", "Address": "4 Cromwell Place", "Type": "Commercial Galleries" }, "geometry": { "type": "Point", "coordinates": [ -0.17460158, 51.495116 ] } },
{ "type": "Feature", "properties": { "Name": "Amanda Wilkinson Gallery", "Borough": "Westminster", "Address": "1st Floor, 18 Brewer St", "Type": "Commercial Galleries" }, "geometry": { "type": "Point", "coordinates": [ -0.13430933, 51.51235 ] } },
{ "type": "Feature", "properties": { "Name": "3812 Gallery", "Borough": "Westminster", "Address": "21 Ryder Street", "Type": "Commercial Galleries" }, "geometry": { "type": "Point", "coordinates": [ -0.13857901, 51.5066 ] } },
{ "type": "Feature", "properties": { "Name": "Bartha Contemporary", "Borough": "Kensington and Chelsea", "Address": "7 Ledbury Mews North", "Type": "Commercial Galleries" }, "geometry": { "type": "Point", "coordinates": [ -0.19952628, 51.513711 ] } },
{ "type": "Feature", "properties": { "Name": "AALondon Gallery", "Borough": "Hounslow", "Address": "24 Devonshire Road", "Type": "Commercial Galleries" }, "geometry": { "type": "Point", "coordinates": [ -0.25567924, 51.491728 ] } },
{ "type": "Feature", "properties": { "Name": "Black Box Projects", "Borough": "Kensington and Chelsea", "Address": "4 Cromwell Place, Gallery 3", "Type": "Commercial Galleries" }, "geometry": { "type": "Point", "coordinates": [ -0.17460158, 51.495116 ] } },
{ "type": "Feature", "properties": { "Name": "Ben Hunter", "Borough": "Westminster", "Address": "44 Duke Street", "Type": "Commercial Galleries" }, "geometry": { "type": "Point", "coordinates": [ -0.13768445, 51.506981 ] } },
{ "type": "Feature", "properties": { "Name": "Berntson Bhattacharjee Gallery", "Borough": "Kensington and Chelsea", "Address": "4 Cromwell Place", "Type": "Commercial Galleries" }, "geometry": { "type": "Point", "coordinates": [ -0.17460158, 51.495116 ] } },
{ "type": "Feature", "properties": { "Name": "Castor", "Borough": "Camden", "Address": "Kirkman House", "Type": "Commercial Galleries" }, "geometry": { "type": "Point", "coordinates": [ -0.13392022, 51.519403 ] } },
{ "type": "Feature", "properties": { "Name": "Claas Reiss", "Borough": "Camden", "Address": "96 Robert Street", "Type": "Commercial Galleries" }, "geometry": { "type": "Point", "coordinates": [ -0.14324357, 51.528678 ] } },
{ "type": "Feature", "properties": { "Name": "Cooke Latham", "Borough": "Wandsworth", "Address": "41 Parkgate Road", "Type": "Commercial Galleries" }, "geometry": { "type": "Point", "coordinates": [ -0.16736167, 51.479149 ] } },
{ "type": "Feature", "properties": { "Name": "CØPPERFIELD", "Borough": "Southwark", "Address": "6 Copperfield Street", "Type": "Commercial Galleries" }, "geometry": { "type": "Point", "coordinates": [ -0.097293305, 51.503167 ] } },
{ "type": "Feature", "properties": { "Name": "Darren Flook/Freehouse", "Borough": "Westminster", "Address": "106 Great Portland St.", "Type": "Commercial Galleries" }, "geometry": { "type": "Point", "coordinates": [ -0.14221278, 51.519292 ] } },
{ "type": "Feature", "properties": { "Name": "Doyle Wham", "Borough": "Hackney", "Address": "91a Rivington Street", "Type": "Commercial Galleries" }, "geometry": { "type": "Point", "coordinates": [ -0.07853656, 51.526368 ] } },
{ "type": "Feature", "properties": { "Name": "Eve Leibe", "Borough": "Tower Hamlets", "Address": "5 Dalston Lane", "Type": "Commercial Galleries" }, "geometry": { "type": "Point", "coordinates": [ -0.023450254, 51.539715 ] } },
{ "type": "Feature", "properties": { "Name": "Galerie Max Hetzler", "Borough": "Westminster", "Address": "First Floor, 41 Dover Street\n", "Type": "Commercial Galleries" }, "geometry": { "type": "Point", "coordinates": [ -0.14205, 51.5081 ] } },
{ "type": "Feature", "properties": { "Name": "Grove Collective", "Borough": "Wandsworth", "Address": "9b Battersea Square", "Type": "Commercial Galleries" }, "geometry": { "type": "Point", "coordinates": [ -0.17529, 51.47539 ] } },
{ "type": "Feature", "properties": { "Name": "Hollybush Gardens", "Borough": "Camden", "Address": "1–2 Warner Yard", "Type": "Commercial Galleries" }, "geometry": { "type": "Point", "coordinates": [ -0.11122059, 51.523176 ] } },
{ "type": "Feature", "properties": { "Name": "Holtermann Fine Art", "Borough": "Westminster", "Address": "30 Cork Street", "Type": "Commercial Galleries" }, "geometry": { "type": "Point", "coordinates": [ -0.14151718, 51.510531 ] } },
{ "type": "Feature", "properties": { "Name": "Josh Lilley", "Borough": "Westminster", "Address": "40-46 Riding House Street", "Type": "Commercial Galleries" }, "geometry": { "type": "Point", "coordinates": [ -0.13928193, 51.519056 ] } },
{ "type": "Feature", "properties": { "Name": "Lehmann Maupin", "Borough": "Kensington and Chelsea", "Address": "1 Cromwell Place", "Type": "Commercial Galleries" }, "geometry": { "type": "Point", "coordinates": [ -0.17458248, 51.494873 ] } },
{ "type": "Feature", "properties": { "Name": "LUNGLEY Gallery", "Borough": "Westminster", "Address": "2nd Floor", "Type": "Commercial Galleries" }, "geometry": { "type": "Point", "coordinates": [ -0.14176774, 51.517477 ] } },
{ "type": "Feature", "properties": { "Name": "MAMOTH", "Borough": "Camden", "Address": "3 Endsleigh Street", "Type": "Commercial Galleries" }, "geometry": { "type": "Point", "coordinates": [ -0.13080065, 51.526241 ] } },
{ "type": "Feature", "properties": { "Name": "Studio M ", "Borough": "Tower Hamlets", "Address": "Rochelle School", "Type": "Commercial Galleries" }, "geometry": { "type": "Point", "coordinates": [ -0.074150215, 51.525775 ] } },
{ "type": "Feature", "properties": { "Name": "Maximilian William ", "Borough": "Westminster", "Address": "47 Mortimer Street", "Type": "Commercial Galleries" }, "geometry": { "type": "Point", "coordinates": [ -0.13918806, 51.517823 ] } },
{ "type": "Feature", "properties": { "Name": "NiCOLETTi", "Borough": "Tower Hamlets", "Address": "12A Vyner Street", "Type": "Commercial Galleries" }, "geometry": { "type": "Point", "coordinates": [ -0.056184619, 51.534309 ] } },
{ "type": "Feature", "properties": { "Name": "Niru Ratm", "Borough": "Westminster", "Address": "First Floor, 23 Ganton Street", "Type": "Commercial Galleries" }, "geometry": { "type": "Point", "coordinates": [ -0.13920555, 51.512796 ] } },
{ "type": "Feature", "properties": { "Name": "No.9 Cork Street", "Borough": "Westminster", "Address": "9 Cork Street", "Type": "Commercial Galleries" }, "geometry": { "type": "Point", "coordinates": [ -0.14158686, 51.510235 ] } },
{ "type": "Feature", "properties": { "Name": "PATERSON ZEVI", "Borough": "Westminster", "Address": "Flat 1, 41 Davies Street", "Type": "Commercial Galleries" }, "geometry": { "type": "Point", "coordinates": [ -0.14836, 51.51226 ] } },
{ "type": "Feature", "properties": { "Name": "Pilar Corrias Savile Row", "Borough": "Westminster", "Address": "2 Savile Row", "Type": "Commercial Galleries" }, "geometry": { "type": "Point", "coordinates": [ -0.13949018, 51.510409 ] } },
{ "type": "Feature", "properties": { "Name": "PUBLIC Gallery", "Borough": "City of London", "Address": "91 Middlesex Street", "Type": "Commercial Galleries" }, "geometry": { "type": "Point", "coordinates": [ -0.076713646, 51.516258 ] } },
{ "type": "Feature", "properties": { "Name": "Saatchi Yates", "Borough": "Westminster", "Address": "6 Cork Street", "Type": "Commercial Galleries" }, "geometry": { "type": "Point", "coordinates": [ -0.14195728, 51.51034 ] } },
{ "type": "Feature", "properties": { "Name": "SEAGER", "Borough": "Lewisham", "Address": "Distillery Tower", "Type": "Commercial Galleries" }, "geometry": { "type": "Point", "coordinates": [ -0.023354832, 51.473662 ] } },
{ "type": "Feature", "properties": { "Name": "Sim Smith", "Borough": "Southwark", "Address": "6 Camberwell Passage", "Type": "Commercial Galleries" }, "geometry": { "type": "Point", "coordinates": [ -0.094326691, 51.474801 ] } },
{ "type": "Feature", "properties": { "Name": "Soft Opening", "Borough": "Tower Hamlets", "Address": "6 Minerva Street", "Type": "Commercial Galleries" }, "geometry": { "type": "Point", "coordinates": [ -0.059731586, 51.531598 ] } },
{ "type": "Feature", "properties": { "Name": "South Parade", "Borough": "Lewisham", "Address": "Enclave 9", "Type": "Commercial Galleries" }, "geometry": { "type": "Point", "coordinates": [ -0.024386142, 51.478455 ] } },
{ "type": "Feature", "properties": { "Name": "Sundy", "Borough": "Lambeth", "Address": "63 Black Prince Rd", "Type": "Commercial Galleries" }, "geometry": { "type": "Point", "coordinates": [ -0.11863653, 51.491534 ] } },
{ "type": "Feature", "properties": { "Name": "Tabula Rasa Gallery", "Borough": "Hackney", "Address": "Unit One, 99 East Road", "Type": "Commercial Galleries" }, "geometry": { "type": "Point", "coordinates": [ -0.087158568, 51.529782 ] } },
{ "type": "Feature", "properties": { "Name": "The Artist Room", "Borough": "Westminster", "Address": "Floor 3, 76 Brewer St", "Type": "Commercial Galleries" }, "geometry": { "type": "Point", "coordinates": [ -0.13679981, 51.511005 ] } },
{ "type": "Feature", "properties": { "Name": "The Perimeter", "Borough": "Camden", "Address": "20 Brownlow Mews", "Type": "Commercial Galleries" }, "geometry": { "type": "Point", "coordinates": [ -0.11594107, 51.524061 ] } },
{ "type": "Feature", "properties": { "Name": "Trafalgar Avenue", "Borough": "Southwark", "Address": "29 Trafalgar Avenue", "Type": "Commercial Galleries" }, "geometry": { "type": "Point", "coordinates": [ -0.073808795, 51.485689 ] } },
{ "type": "Feature", "properties": { "Name": "Blue Shop Cottage", "Borough": "Southwark", "Address": "113A Grove Lane", "Type": "Commercial Galleries" }, "geometry": { "type": "Point", "coordinates": [ -0.086473108, 51.468397 ] } },
{ "type": "Feature", "properties": { "Name": "The Lemongrove Gallery", "Borough": "Hounslow", "Address": "255A Chiswick High Rd", "Type": "Commercial Galleries" }, "geometry": { "type": "Point", "coordinates": [ -0.26176883, 51.492205 ] } },
{ "type": "Feature", "properties": { "Name": "Xxijra Hii", "Borough": "Lewisham", "Address": "Enclave 4", "Type": "Commercial Galleries" }, "geometry": { "type": "Point", "coordinates": [ -0.024386142, 51.478455 ] } },
{ "type": "Feature", "properties": { "Name": "OPEN Ealing", "Borough": "Ealing", "Address": "Unit 14, School Lane Dickens Yard", "Type": "Commercial Galleries" }, "geometry": { "type": "Point", "coordinates": [ -0.3060391, 51.513877 ] } },
{ "type": "Feature", "properties": { "Name": "Museum of Croydon", "Borough": "Croydon", "Address": "Central Library", "Type": "Museums" }, "geometry": { "type": "Point", "coordinates": [ -0.097931813, 51.37138431 ] } },
{ "type": "Feature", "properties": { "Name": "Museum of Writing", "Borough": "Camden", "Address": "c/o Institute of English Studies", "Type": "Museums" }, "geometry": { "type": "Point", "coordinates": [ -0.127116688, 51.52013303 ] } },
{ "type": "Feature", "properties": { "Name": "The Foundling Museum", "Borough": "Camden", "Address": "40 Brunswick Square", "Type": "Museums" }, "geometry": { "type": "Point", "coordinates": [ -0.12006408, 51.52475979 ] } },
{ "type": "Feature", "properties": { "Name": "Freud Museum", "Borough": "Camden", "Address": "20 Maresfield Gardens", "Type": "Museums" }, "geometry": { "type": "Point", "coordinates": [ -0.175669217, 51.54791475 ] } },
{ "type": "Feature", "properties": { "Name": "Keats House", "Borough": "Camden", "Address": "10 Keats Grove", "Type": "Museums" }, "geometry": { "type": "Point", "coordinates": [ -0.166351857, 51.55506318 ] } },
{ "type": "Feature", "properties": { "Name": "British Museum", "Borough": "Camden", "Address": "Great Russell Street", "Type": "Museums" }, "geometry": { "type": "Point", "coordinates": [ -0.124893237, 51.51846067 ] } },
{ "type": "Feature", "properties": { "Name": "2 Willow Road", "Borough": "Camden", "Address": "Hampstead", "Type": "Museums" }, "geometry": { "type": "Point", "coordinates": [ -0.167571832, 51.5566561 ] } },
{ "type": "Feature", "properties": { "Name": "British Library", "Borough": "Camden", "Address": "96 Euston Road London", "Type": "Museums" }, "geometry": { "type": "Point", "coordinates": [ -0.125406634, 51.52947699 ] } },
{ "type": "Feature", "properties": { "Name": "Burgh House and Hampstead Museum", "Borough": "Camden", "Address": "New End Square", "Type": "Museums" }, "geometry": { "type": "Point", "coordinates": [ -0.173489583, 51.55767471 ] } },
{ "type": "Feature", "properties": { "Name": "Royal College of Physicians of London Museum", "Borough": "Camden", "Address": "Library Archive and Museum Services", "Type": "Museums" }, "geometry": { "type": "Point", "coordinates": [ -0.143400913, 51.52523946 ] } },
{ "type": "Feature", "properties": { "Name": "Jewish Museum, London", "Borough": "Camden", "Address": "Raymond Burton Hs", "Type": "Museums" }, "geometry": { "type": "Point", "coordinates": [ -0.143061343, 51.53677278 ] } },
{ "type": "Feature", "properties": { "Name": "Wellcome Collection", "Borough": "Camden", "Address": "183 Euston Road", "Type": "Museums" }, "geometry": { "type": "Point", "coordinates": [ -0.132336523, 51.52538756 ] } },
{ "type": "Feature", "properties": { "Name": "Government Art Collection", "Borough": "Camden", "Address": "Queen's Yard", "Type": "Museums" }, "geometry": { "type": "Point", "coordinates": [ -0.133320357, 51.52177882 ] } },
{ "type": "Feature", "properties": { "Name": "Fenton House and Garden", "Borough": "Camden", "Address": "Hampstead Grove", "Type": "Museums" }, "geometry": { "type": "Point", "coordinates": [ -0.178553228, 51.55840996 ] } },
{ "type": "Feature", "properties": { "Name": "Sir John Soane's Museum", "Borough": "Camden", "Address": "13 Lincolnâ€™s Inn Fields", "Type": "Museums" }, "geometry": { "type": "Point", "coordinates": [ -0.115936351, 51.51648243 ] } },
{ "type": "Feature", "properties": { "Name": "Grant Museum of Zoology and Comparative Anatomy, UCL", "Borough": "Camden", "Address": "21 University Street", "Type": "Museums" }, "geometry": { "type": "Point", "coordinates": [ -0.133078286, 51.52311501 ] } },
{ "type": "Feature", "properties": { "Name": "Petrie Museum of Egyptian Archaeology", "Borough": "Camden", "Address": "University College London", "Type": "Museums" }, "geometry": { "type": "Point", "coordinates": [ -0.130912785, 51.52353919 ] } },
{ "type": "Feature", "properties": { "Name": "Geology (and Teaching & Research) Collections, UCL", "Borough": "Camden", "Address": "Rock Room", "Type": "Museums" }, "geometry": { "type": "Point", "coordinates": [ -0.13187663, 51.52359052 ] } },
{ "type": "Feature", "properties": { "Name": "UCL Art Museum", "Borough": "Camden", "Address": "South Cloisters", "Type": "Museums" }, "geometry": { "type": "Point", "coordinates": [ -0.131687181, 51.52399221 ] } },
{ "type": "Feature", "properties": { "Name": "Crystal Palace Museum", "Borough": "Bromley", "Address": "Anerley Hill", "Type": "Museums" }, "geometry": { "type": "Point", "coordinates": [ -0.075116344, 51.41925428 ] } },
{ "type": "Feature", "properties": { "Name": "Ragged School Museum", "Borough": "Tower Hamlets", "Address": "46-50 Copperfield Road", "Type": "Museums" }, "geometry": { "type": "Point", "coordinates": [ -0.03407382, 51.51815155 ] } },
{ "type": "Feature", "properties": { "Name": "The Tower of London", "Borough": "Tower Hamlets", "Address": "St Katharine's & Wapping", "Type": "Museums" }, "geometry": { "type": "Point", "coordinates": [ -0.074659304, 51.50776272 ] } },
{ "type": "Feature", "properties": { "Name": "Royal Armouries, Tower of London", "Borough": "Tower Hamlets", "Address": "HM Tower Of London", "Type": "Museums" }, "geometry": { "type": "Point", "coordinates": [ -0.074659304, 51.50776272 ] } },
{ "type": "Feature", "properties": { "Name": "The Fusilier Museum London", "Borough": "Tower Hamlets", "Address": "HM Tower of London", "Type": "Museums" }, "geometry": { "type": "Point", "coordinates": [ -0.073602252, 51.50788027 ] } },
{ "type": "Feature", "properties": { "Name": "Museum of the Royal Pharmaceutical Society", "Borough": "Tower Hamlets", "Address": "66-68 E Smithfield", "Type": "Museums" }, "geometry": { "type": "Point", "coordinates": [ -0.066684113, 51.50856685 ] } },
{ "type": "Feature", "properties": { "Name": "Museum of London Docklands", "Borough": "Tower Hamlets", "Address": "No. 1 Warehouse", "Type": "Museums" }, "geometry": { "type": "Point", "coordinates": [ -0.022241432, 51.5071062 ] } },
{ "type": "Feature", "properties": { "Name": "Trades Union Congress (TUC) Library Collections", "Borough": "Tower Hamlets", "Address": "Special Collections  London Metropolitan Universit", "Type": "Museums" }, "geometry": { "type": "Point", "coordinates": [ -0.072411463, 51.51526246 ] } },
{ "type": "Feature", "properties": { "Name": "Kelmscott Manor", "Borough": "Hammersmith and Fulham", "Address": "26 Upper Mall", "Type": "Museums" }, "geometry": { "type": "Point", "coordinates": [ -0.233934067, 51.49007025 ] } },
{ "type": "Feature", "properties": { "Name": "Fulham Palace", "Borough": "Hammersmith and Fulham", "Address": "Fulham Palace", "Type": "Museums" }, "geometry": { "type": "Point", "coordinates": [ -0.213626422, 51.47003084 ] } },
{ "type": "Feature", "properties": { "Name": "Wandle Industrial Museum", "Borough": "Merton", "Address": "The Vestry Hall Annexe", "Type": "Museums" }, "geometry": { "type": "Point", "coordinates": [ -0.166466478, 51.4017516 ] } },
{ "type": "Feature", "properties": { "Name": "Museum of Wimbledon", "Borough": "Merton", "Address": "22 Ridgway", "Type": "Museums" }, "geometry": { "type": "Point", "coordinates": [ -0.215074838, 51.42283672 ] } },
{ "type": "Feature", "properties": { "Name": "Wimbledon Lawn Tennis Museum", "Borough": "Merton", "Address": "The All England Lawn Tennis Club", "Type": "Museums" }, "geometry": { "type": "Point", "coordinates": [ -0.212459281, 51.43320243 ] } },
{ "type": "Feature", "properties": { "Name": "Barts Pathology Museum", "Borough": "City of London", "Address": "3rd Floor", "Type": "Museums" }, "geometry": { "type": "Point", "coordinates": [ -0.099433593, 51.51713619 ] } },
{ "type": "Feature", "properties": { "Name": "St. Bartholomew's Hospital Museum", "Borough": "City of London", "Address": "North Wing", "Type": "Museums" }, "geometry": { "type": "Point", "coordinates": [ -0.099433593, 51.51713619 ] } },
{ "type": "Feature", "properties": { "Name": "Valence House Museum", "Borough": "Barking and Dagenham", "Address": "Becontree Ave", "Type": "Museums" }, "geometry": { "type": "Point", "coordinates": [ 0.135812252, 51.55780231 ] } },
{ "type": "Feature", "properties": { "Name": "Dorich House Museum", "Borough": "Kingston upon Thames", "Address": "Kingston University", "Type": "Museums" }, "geometry": { "type": "Point", "coordinates": [ -0.261523826, 51.4328253 ] } },
{ "type": "Feature", "properties": { "Name": "Kingston Museum (and Heritage Service)", "Borough": "Kingston upon Thames", "Address": "Wheatfield Way", "Type": "Museums" }, "geometry": { "type": "Point", "coordinates": [ -0.298723543, 51.40903476 ] } },
{ "type": "Feature", "properties": { "Name": "The Stephens Collection", "Borough": "Barnet", "Address": "Avenue House", "Type": "Museums" }, "geometry": { "type": "Point", "coordinates": [ -0.192996205, 51.59610036 ] } },
{ "type": "Feature", "properties": { "Name": "Royal Air Force Museum London (RAF)", "Borough": "Barnet", "Address": "Grahame Park Way", "Type": "Museums" }, "geometry": { "type": "Point", "coordinates": [ -0.236591661, 51.59844565 ] } },
{ "type": "Feature", "properties": { "Name": "Barnet Museum (and Local History Society)", "Borough": "Barnet", "Address": "31 Wood Street", "Type": "Museums" }, "geometry": { "type": "Point", "coordinates": [ -0.200717589, 51.65238108 ] } },
{ "type": "Feature", "properties": { "Name": "Museum of Domestic Design and Architecture", "Borough": "Barnet", "Address": "Middlesex University", "Type": "Museums" }, "geometry": { "type": "Point", "coordinates": [ -0.240340162, 51.59561416 ] } },
{ "type": "Feature", "properties": { "Name": "Brent Museum and Archives", "Borough": "Brent", "Address": "Willesden Library Centre", "Type": "Museums" }, "geometry": { "type": "Point", "coordinates": [ -0.22734961, 51.54614396 ] } },
{ "type": "Feature", "properties": { "Name": "The Clockmakers' Museum", "Borough": "Kensington and Chelsea", "Address": "Exhibition Road", "Type": "Museums" }, "geometry": { "type": "Point", "coordinates": [ -0.174916546, 51.49678399 ] } },
{ "type": "Feature", "properties": { "Name": "Leighton House Museum", "Borough": "Kensington and Chelsea", "Address": "12 Holland Park Road", "Type": "Museums" }, "geometry": { "type": "Point", "coordinates": [ -0.201521502, 51.49807644 ] } },
{ "type": "Feature", "properties": { "Name": "Design Museum", "Borough": "Kensington and Chelsea", "Address": "224-238 Kensington High Street (Holland Park)", "Type": "Museums" }, "geometry": { "type": "Point", "coordinates": [ -0.198585083, 51.49936312 ] } },
{ "type": "Feature", "properties": { "Name": "Kensington Palace (State Apartments and Royal Ceremon", "Borough": "Kensington and Chelsea", "Address": "Kensington Palace/Palace Green", "Type": "Museums" }, "geometry": { "type": "Point", "coordinates": [ -0.18644659, 51.50468832 ] } },
{ "type": "Feature", "properties": { "Name": "National Army Museum", "Borough": "Kensington and Chelsea", "Address": "Royal Hospital Road", "Type": "Museums" }, "geometry": { "type": "Point", "coordinates": [ -0.158760019, 51.48571566 ] } },
{ "type": "Feature", "properties": { "Name": "RIBA Drawings and Archives Collections", "Borough": "Kensington and Chelsea", "Address": "Victoria and Albert Museum", "Type": "Museums" }, "geometry": { "type": "Point", "coordinates": [ -0.170521415, 51.49639021 ] } },
{ "type": "Feature", "properties": { "Name": "Natural History Museum", "Borough": "Kensington and Chelsea", "Address": "Cromwell Road", "Type": "Museums" }, "geometry": { "type": "Point", "coordinates": [ -0.175291575, 51.49605236 ] } },
{ "type": "Feature", "properties": { "Name": "Carlyle's House", "Borough": "Kensington and Chelsea", "Address": "24 Cheyne Row", "Type": "Museums" }, "geometry": { "type": "Point", "coordinates": [ -0.168124823, 51.48361945 ] } },
{ "type": "Feature", "properties": { "Name": "The Science Museum", "Borough": "Kensington and Chelsea", "Address": "Exhibition Rd", "Type": "Museums" }, "geometry": { "type": "Point", "coordinates": [ -0.174916546, 51.49678399 ] } },
{ "type": "Feature", "properties": { "Name": "Victoria and Albert Museum", "Borough": "Kensington and Chelsea", "Address": "Cromwell Road", "Type": "Museums" }, "geometry": { "type": "Point", "coordinates": [ -0.170623933, 51.49643156 ] } },
{ "type": "Feature", "properties": { "Name": "The Estorick Collection of Modern Italian Art", "Borough": "Islington", "Address": "39A Canonbury Square", "Type": "Museums" }, "geometry": { "type": "Point", "coordinates": [ -0.098988883, 51.54336953 ] } },
{ "type": "Feature", "properties": { "Name": "John WesleyÊ¼s House and The Museum of Methodism", "Borough": "Islington", "Address": "Wesley's Chapel", "Type": "Museums" }, "geometry": { "type": "Point", "coordinates": [ -0.085460513, 51.52307582 ] } },
{ "type": "Feature", "properties": { "Name": "Wesleyâ€™s Chapel, Museum of Methodism and John Wesle", "Borough": "Islington", "Address": "49 City Road", "Type": "Museums" }, "geometry": { "type": "Point", "coordinates": [ -0.084933935, 51.52325609 ] } },
{ "type": "Feature", "properties": { "Name": "London Canal Museum", "Borough": "Islington", "Address": "12/13 New Wharf Road", "Type": "Museums" }, "geometry": { "type": "Point", "coordinates": [ -0.118714556, 51.53371372 ] } },
{ "type": "Feature", "properties": { "Name": "Museum of the Order of St John", "Borough": "Islington", "Address": "St Johnâ€™s Gate", "Type": "Museums" }, "geometry": { "type": "Point", "coordinates": [ -0.100927156, 51.52141165 ] } },
{ "type": "Feature", "properties": { "Name": "Whitehall Historic House", "Borough": "Sutton", "Address": "1 Malden Road", "Type": "Museums" }, "geometry": { "type": "Point", "coordinates": [ -0.215642786, 51.35885564 ] } },
{ "type": "Feature", "properties": { "Name": "Honeywood Museum", "Borough": "Sutton", "Address": "Honeywood Walk", "Type": "Museums" }, "geometry": { "type": "Point", "coordinates": [ -0.163496882, 51.36460606 ] } },
{ "type": "Feature", "properties": { "Name": "Tate Modern", "Borough": "Southwark", "Address": "Bankside", "Type": "Museums" }, "geometry": { "type": "Point", "coordinates": [ -0.097789441, 51.50710595 ] } },
{ "type": "Feature", "properties": { "Name": "Fashion and Textile Museum", "Borough": "Southwark", "Address": "83 Bermondsey Street", "Type": "Museums" }, "geometry": { "type": "Point", "coordinates": [ -0.080203629, 51.50066771 ] } },
{ "type": "Feature", "properties": { "Name": "Musical Museum", "Borough": "Hounslow", "Address": "399 High St", "Type": "Museums" }, "geometry": { "type": "Point", "coordinates": [ -0.291568435, 51.48739874 ] } },
{ "type": "Feature", "properties": { "Name": "Hampton Court Palace", "Borough": "Richmond upon Thames", "Address": "Molesey", "Type": "Museums" }, "geometry": { "type": "Point", "coordinates": [ -0.336075749, 51.40333861 ] } },
{ "type": "Feature", "properties": { "Name": "Kew Palace", "Borough": "Richmond upon Thames", "Address": "Royal Botanic Gardens Kew", "Type": "Museums" }, "geometry": { "type": "Point", "coordinates": [ -0.289611457, 51.48476211 ] } },
{ "type": "Feature", "properties": { "Name": "Strawberry Hill House", "Borough": "Richmond upon Thames", "Address": "268 Waldegrave Rd", "Type": "Museums" }, "geometry": { "type": "Point", "coordinates": [ -0.333172189, 51.43770637 ] } },
{ "type": "Feature", "properties": { "Name": "Heath Robinson Museum", "Borough": "Harrow", "Address": "Pinner Memorial Park", "Type": "Museums" }, "geometry": { "type": "Point", "coordinates": [ -0.385111771, 51.59197479 ] } },
{ "type": "Feature", "properties": { "Name": "Headstone Manor & Museum", "Borough": "Harrow", "Address": "Headstone Manor", "Type": "Museums" }, "geometry": { "type": "Point", "coordinates": [ -0.353505542, 51.59396486 ] } },
{ "type": "Feature", "properties": { "Name": "Hackney Museum", "Borough": "Hackney", "Address": "1 Reading Lane", "Type": "Museums" }, "geometry": { "type": "Point", "coordinates": [ -0.054481199, 51.54397082 ] } },
{ "type": "Feature", "properties": { "Name": "House Mill", "Borough": "Newham", "Address": "Three Mill Lane", "Type": "Museums" }, "geometry": { "type": "Point", "coordinates": [ -0.005984978, 51.52689584 ] } },
{ "type": "Feature", "properties": { "Name": "Royal Museums Greenwich", "Borough": "Greenwich", "Address": "National Maritime Museum", "Type": "Museums" }, "geometry": { "type": "Point", "coordinates": [ -0.002131999, 51.48063722 ] } },
{ "type": "Feature", "properties": { "Name": "Eltham Palace", "Borough": "Greenwich", "Address": "Court Yard", "Type": "Museums" }, "geometry": { "type": "Point", "coordinates": [ 0.049538845, 51.44646434 ] } },
{ "type": "Feature", "properties": { "Name": "National Maritime Museum", "Borough": "Greenwich", "Address": "Romney Road", "Type": "Museums" }, "geometry": { "type": "Point", "coordinates": [ -0.003622409, 51.48042509 ] } },
{ "type": "Feature", "properties": { "Name": "Charterhouse", "Borough": "Islington", "Address": "Sutton's Hospital", "Type": "Museums" }, "geometry": { "type": "Point", "coordinates": [ -0.098458374, 51.52080505 ] } },
{ "type": "Feature", "properties": { "Name": "Cinema Museum", "Borough": "Lambeth", "Address": "The Masterâ€™s House, The Old Lambeth Workhouse", "Type": "Museums" }, "geometry": { "type": "Point", "coordinates": [ -0.103585874, 51.49176679 ] } },
{ "type": "Feature", "properties": { "Name": "Michael Faraday Museum at the Royal Institution", "Borough": "Westminster", "Address": "The Royal Institution", "Type": "Museums" }, "geometry": { "type": "Point", "coordinates": [ -0.14097368, 51.50943533 ] } },
{ "type": "Feature", "properties": { "Name": "Tate Britain", "Borough": "Westminster", "Address": "Millbank", "Type": "Museums" }, "geometry": { "type": "Point", "coordinates": [ -0.125600103, 51.49035804 ] } },
{ "type": "Feature", "properties": { "Name": "The Society of Antiquaries of London - Burlington Hou", "Borough": "Westminster", "Address": "Burlington House", "Type": "Museums" }, "geometry": { "type": "Point", "coordinates": [ -0.138169461, 51.50822168 ] } },
{ "type": "Feature", "properties": { "Name": "Royal Academy of Arts", "Borough": "Westminster", "Address": "Burlington House", "Type": "Museums" }, "geometry": { "type": "Point", "coordinates": [ -0.137996003, 51.50858766 ] } },
{ "type": "Feature", "properties": { "Name": "Marylebone Cricket Club Museum", "Borough": "Westminster", "Address": "Lordâ€™s Ground", "Type": "Museums" }, "geometry": { "type": "Point", "coordinates": [ -0.171475242, 51.52803681 ] } },
{ "type": "Feature", "properties": { "Name": "The Courtauld Gallery", "Borough": "Westminster", "Address": "Somerset House", "Type": "Museums" }, "geometry": { "type": "Point", "coordinates": [ -0.116370226, 51.51050867 ] } },
{ "type": "Feature", "properties": { "Name": "Household Cavalry Museum", "Borough": "Westminster", "Address": "Horseguards Parade", "Type": "Museums" }, "geometry": { "type": "Point", "coordinates": [ -0.125655069, 51.50446986 ] } },
{ "type": "Feature", "properties": { "Name": "Royal Academy of Music Museum", "Borough": "Westminster", "Address": "1â€“5 York Gate", "Type": "Museums" }, "geometry": { "type": "Point", "coordinates": [ -0.150758163, 51.52299939 ] } },
{ "type": "Feature", "properties": { "Name": "Guards Museum", "Borough": "Westminster", "Address": "Wellington Barracks", "Type": "Museums" }, "geometry": { "type": "Point", "coordinates": [ -0.136697005, 51.4990968 ] } },
{ "type": "Feature", "properties": { "Name": "Banqueting House Whitehall", "Borough": "Westminster", "Address": "Whitehall", "Type": "Museums" }, "geometry": { "type": "Point", "coordinates": [ -0.124347466, 51.50402625 ] } },
{ "type": "Feature", "properties": { "Name": "Imperial College Healthcare Charity Art Collection at", "Borough": "Westminster", "Address": "Ground Floor", "Type": "Museums" }, "geometry": { "type": "Point", "coordinates": [ -0.172051702, 51.51688486 ] } },
{ "type": "Feature", "properties": { "Name": "The Wallace Collection", "Borough": "Westminster", "Address": "Hertford House", "Type": "Museums" }, "geometry": { "type": "Point", "coordinates": [ -0.151317737, 51.51665878 ] } },
{ "type": "Feature", "properties": { "Name": "British Optical Association Museum", "Borough": "Westminster", "Address": "The College of Optometrists", "Type": "Museums" }, "geometry": { "type": "Point", "coordinates": [ -0.123773966, 51.50733274 ] } },
{ "type": "Feature", "properties": { "Name": "Anaesthetesia Heritage Centre", "Borough": "Westminster", "Address": "21 Portland Pl", "Type": "Museums" }, "geometry": { "type": "Point", "coordinates": [ -0.143529719, 51.51888307 ] } },
{ "type": "Feature", "properties": { "Name": "London Transport Museum", "Borough": "Westminster", "Address": "39 Wellington Street", "Type": "Museums" }, "geometry": { "type": "Point", "coordinates": [ -0.119639726, 51.51161339 ] } },
{ "type": "Feature", "properties": { "Name": "Museum of the Royal Philatelic Society London", "Borough": "Westminster", "Address": "Royal Philatelic Society London", "Type": "Museums" }, "geometry": { "type": "Point", "coordinates": [ -0.14850506, 51.52096728 ] } },
{ "type": "Feature", "properties": { "Name": "Churchill War Rooms", "Borough": "Westminster", "Address": "Clive Steps", "Type": "Museums" }, "geometry": { "type": "Point", "coordinates": [ -0.127796465, 51.50166677 ] } },
{ "type": "Feature", "properties": { "Name": "Havering Museum", "Borough": "Havering", "Address": "19-21 High St", "Type": "Museums" }, "geometry": { "type": "Point", "coordinates": [ 0.181204103, 51.5774139 ] } },
{ "type": "Feature", "properties": { "Name": "Marble Hill House", "Borough": "Richmond upon Thames", "Address": "Richmond Rd", "Type": "Museums" }, "geometry": { "type": "Point", "coordinates": [ -0.311746658, 51.44900128 ] } },
{ "type": "Feature", "properties": { "Name": "Museum of Richmond", "Borough": "Richmond upon Thames", "Address": "Old Town Hall", "Type": "Museums" }, "geometry": { "type": "Point", "coordinates": [ -0.305011527, 51.45830224 ] } },
{ "type": "Feature", "properties": { "Name": "World Rugby Museum", "Borough": "Richmond upon Thames", "Address": "Twickenham Stadium", "Type": "Museums" }, "geometry": { "type": "Point", "coordinates": [ -0.33915697, 51.4547979 ] } },
{ "type": "Feature", "properties": { "Name": "Islington Museum", "Borough": "Islington", "Address": "Â 245 St John St", "Type": "Museums" }, "geometry": { "type": "Point", "coordinates": [ -0.102943118, 51.52597704 ] } },
{ "type": "Feature", "properties": { "Name": "Bentley Priory Museum", "Borough": "Harrow", "Address": "Mansion House Drive Stanmore", "Type": "Museums" }, "geometry": { "type": "Point", "coordinates": [ -0.331493386, 51.62601154 ] } },
{ "type": "Feature", "properties": { "Name": "Black Cultural Archives", "Borough": "Lambeth", "Address": "1 Windrush Square", "Type": "Museums" }, "geometry": { "type": "Point", "coordinates": [ -0.11299205, 51.45999969 ] } },
{ "type": "Feature", "properties": { "Name": "Redbridge Museum", "Borough": "Redbridge", "Address": "Redbridge Central Library", "Type": "Museums" }, "geometry": { "type": "Point", "coordinates": [ 0.076933039, 51.55755549 ] } },
{ "type": "Feature", "properties": { "Name": "Horniman Museum and Gardens", "Borough": "Lewisham", "Address": "100 London Road", "Type": "Museums" }, "geometry": { "type": "Point", "coordinates": [ -0.059150882, 51.44061193 ] } },
{ "type": "Feature", "properties": { "Name": "Library and Museum of Freemasonry", "Borough": "Camden", "Address": "Freemasons' Hall", "Type": "Museums" }, "geometry": { "type": "Point", "coordinates": [ -0.119529012, 51.51465144 ] } },
{ "type": "Feature", "properties": { "Name": "Charles Dickens Museum", "Borough": "Camden", "Address": "48 Doughty St", "Type": "Museums" }, "geometry": { "type": "Point", "coordinates": [ -0.114654399, 51.52309009 ] } },
{ "type": "Feature", "properties": { "Name": "Crossness Engines", "Borough": "Bexley", "Address": "The Old Works. Thames Water S.T.W.", "Type": "Museums" }, "geometry": { "type": "Point", "coordinates": [ 0.13561791, 51.50529066 ] } },
{ "type": "Feature", "properties": { "Name": "National Portrait Gallery", "Borough": "Westminster", "Address": "St Martinâ€™s Place", "Type": "Museums" }, "geometry": { "type": "Point", "coordinates": [ -0.126871767, 51.50888716 ] } },
{ "type": "Feature", "properties": { "Name": "Hunterian Museum at the Royal College of Surgeons", "Borough": "Westminster", "Address": "Royal College of Surgeons", "Type": "Museums" }, "geometry": { "type": "Point", "coordinates": [ -0.114291539, 51.51477419 ] } },
{ "type": "Feature", "properties": { "Name": "Anatomy and Pathology Museum", "Borough": "Westminster", "Address": "35-43 Lincoln's Inn Fields", "Type": "Museums" }, "geometry": { "type": "Point", "coordinates": [ -0.114291539, 51.51477419 ] } },
{ "type": "Feature", "properties": { "Name": "Kenwood House (known as the Iveagh Bequest)", "Borough": "Camden", "Address": "Hampstead Ln", "Type": "Museums" }, "geometry": { "type": "Point", "coordinates": [ -0.166020721, 51.57082353 ] } },
{ "type": "Feature", "properties": { "Name": "Hall Place and Gardens", "Borough": "Bexley", "Address": "Bourne Road", "Type": "Museums" }, "geometry": { "type": "Point", "coordinates": [ 0.16186577, 51.44750903 ] } },
{ "type": "Feature", "properties": { "Name": "Museum of the Home", "Borough": "Hackney", "Address": "136 Kingsland Road", "Type": "Museums" }, "geometry": { "type": "Point", "coordinates": [ -0.074657422, 51.53104717 ] } },
{ "type": "Feature", "properties": { "Name": "Ham House and Garden", "Borough": "Richmond upon Thames", "Address": "Ham House and Garden", "Type": "Museums" }, "geometry": { "type": "Point", "coordinates": [ -0.314897784, 51.4431649 ] } },
{ "type": "Feature", "properties": { "Name": "Orleans House Gallery", "Borough": "Richmond upon Thames", "Address": "Riverside", "Type": "Museums" }, "geometry": { "type": "Point", "coordinates": [ -0.317512279, 51.44681783 ] } },
{ "type": "Feature", "properties": { "Name": "romley Historic Collections (at Bromley Central Libra", "Borough": "Bromley", "Address": "Â High St", "Type": "Museums" }, "geometry": { "type": "Point", "coordinates": [ 0.016066784, 51.40324078 ] } },
{ "type": "Feature", "properties": { "Name": "Bethlem Museum of the Mind", "Borough": "Bromley", "Address": "Bethlem Royal Hospital", "Type": "Museums" }, "geometry": { "type": "Point", "coordinates": [ -0.028155004, 51.38039353 ] } },
{ "type": "Feature", "properties": { "Name": "Dr. Johnson's House", "Borough": "City of London", "Address": "17 Gough Square", "Type": "Museums" }, "geometry": { "type": "Point", "coordinates": [ -0.106575808, 51.51452396 ] } },
{ "type": "Feature", "properties": { "Name": "Walthamstow Pumphouse Museum", "Borough": "Waltham Forest", "Address": "10 S Access Rd", "Type": "Museums" }, "geometry": { "type": "Point", "coordinates": [ -0.033171337, 51.57620829 ] } },
{ "type": "Feature", "properties": { "Name": "Vestry House Museum", "Borough": "Waltham Forest", "Address": "Vestry Road", "Type": "Museums" }, "geometry": { "type": "Point", "coordinates": [ -0.011143846, 51.58350852 ] } },
{ "type": "Feature", "properties": { "Name": " Sutton House and Breaker's Yard", "Borough": "Hackney", "Address": "2 & 4 Homerton High St", "Type": "Museums" }, "geometry": { "type": "Point", "coordinates": [ -0.048814315, 51.54797778 ] } },
{ "type": "Feature", "properties": { "Name": "The Garden Museum", "Borough": "Lambeth", "Address": "5 Lambeth Palace Rd", "Type": "Museums" }, "geometry": { "type": "Point", "coordinates": [ -0.118613722, 51.49453609 ] } },
{ "type": "Feature", "properties": { "Name": "Ranger's House", "Borough": "Greenwich", "Address": "Chesterfield Walk", "Type": "Museums" }, "geometry": { "type": "Point", "coordinates": [ -0.0000171, 51.47289476 ] } },
{ "type": "Feature", "properties": { "Name": "Fan Museum", "Borough": "Greenwich", "Address": "12 Crooms Hill", "Type": "Museums" }, "geometry": { "type": "Point", "coordinates": [ -0.006612863, 51.47846443 ] } },
{ "type": "Feature", "properties": { "Name": "The Old Royal Naval College", "Borough": "Greenwich", "Address": "King William Walk", "Type": "Museums" }, "geometry": { "type": "Point", "coordinates": [ -0.004804325, 51.48245234 ] } },
{ "type": "Feature", "properties": { "Name": "Mall Galleries", "Borough": "Westminster", "Address": "The Mall", "Type": "Museums" }, "geometry": { "type": "Point", "coordinates": [ -0.128567343, 51.50619817 ] } },
{ "type": "Feature", "properties": { "Name": "Royal College of Music Museum of Instruments", "Borough": "Westminster", "Address": "Prince Consort Rd", "Type": "Museums" }, "geometry": { "type": "Point", "coordinates": [ -0.175312754, 51.49876874 ] } },
{ "type": "Feature", "properties": { "Name": "The London Museum of Water and Steam", "Borough": "Hounslow", "Address": "Green Dragon Lane", "Type": "Museums" }, "geometry": { "type": "Point", "coordinates": [ -0.288952709, 51.48854503 ] } },
{ "type": "Feature", "properties": { "Name": "Hillingdon Local Studies, Archives and Museum", "Borough": "Hillingdon", "Address": "Central Library", "Type": "Museums" }, "geometry": { "type": "Point", "coordinates": [ -0.47672958, 51.54468289 ] } },
{ "type": "Feature", "properties": { "Name": "National Gallery", "Borough": "Westminster", "Address": "Trafalgar Square", "Type": "Museums" }, "geometry": { "type": "Point", "coordinates": [ -0.126076999, 51.50858667 ] } },
{ "type": "Feature", "properties": { "Name": "Benjamin Franklin House", "Borough": "Westminster", "Address": "36 Craven Street", "Type": "Museums" }, "geometry": { "type": "Point", "coordinates": [ -0.123312015, 51.50713046 ] } },
{ "type": "Feature", "properties": { "Name": "British Dental Association Museum", "Borough": "Westminster", "Address": "64 Wimpole St", "Type": "Museums" }, "geometry": { "type": "Point", "coordinates": [ -0.147037043, 51.51806617 ] } },
{ "type": "Feature", "properties": { "Name": "Hogarth House", "Borough": "Hounslow", "Address": "25 Hartington Road", "Type": "Museums" }, "geometry": { "type": "Point", "coordinates": [ -0.25341912, 51.48650733 ] } },
{ "type": "Feature", "properties": { "Name": " Bruce Castle Museum & Archives", "Borough": "Haringey", "Address": "Bruce Castle Museum", "Type": "Museums" }, "geometry": { "type": "Point", "coordinates": [ -0.073849803, 51.59864748 ] } },
{ "type": "Feature", "properties": { "Name": "Down House", "Borough": "Bromley", "Address": "Down House", "Type": "Museums" }, "geometry": { "type": "Point", "coordinates": [ 0.055057521, 51.33089928 ] } },
{ "type": "Feature", "properties": { "Name": "Museum of London", "Borough": "City of London", "Address": "150 London Wall", "Type": "Museums" }, "geometry": { "type": "Point", "coordinates": [ -0.094482179, 51.51728697 ] } },
{ "type": "Feature", "properties": { "Name": "Barbican Art Gallery", "Borough": "City of London", "Address": "Level 3", "Type": "Museums" }, "geometry": { "type": "Point", "coordinates": [ -0.092517837, 51.51944948 ] } },
{ "type": "Feature", "properties": { "Name": "British Red Cross Museum and Archives", "Borough": "City of London", "Address": "UK Office 44 Moorfields", "Type": "Museums" }, "geometry": { "type": "Point", "coordinates": [ -0.087065249, 51.51858074 ] } },
{ "type": "Feature", "properties": { "Name": "Guildhall Art Gallery and London's Roman Amphitheatre", "Borough": "City of London", "Address": "Guildhall Art Gallery Cultural and Visitor Develop", "Type": "Museums" }, "geometry": { "type": "Point", "coordinates": [ -0.09004913, 51.51505639 ] } },
{ "type": "Feature", "properties": { "Name": "Hayward Gallery", "Borough": "Lambeth", "Address": "Southbank Centre", "Type": "Museums" }, "geometry": { "type": "Point", "coordinates": [ -0.113862479, 51.50562082 ] } },
{ "type": "Feature", "properties": { "Name": "Florence Nightingale Museum", "Borough": "Lambeth", "Address": "St. Thomas Hospital", "Type": "Museums" }, "geometry": { "type": "Point", "coordinates": [ -0.115424879, 51.49953929 ] } },
{ "type": "Feature", "properties": { "Name": "The View (Epping Forest Collection)", "Borough": "Waltham Forest", "Address": "6 Rangers Road", "Type": "Museums" }, "geometry": { "type": "Point", "coordinates": [ 0.019126479, 51.63389537 ] } },
{ "type": "Feature", "properties": { "Name": "William Morris Gallery", "Borough": "Waltham Forest", "Address": "Lloyd Park House", "Type": "Museums" }, "geometry": { "type": "Point", "coordinates": [ -0.018781165, 51.59079662 ] } },
{ "type": "Feature", "properties": { "Name": "Cutty Sark", "Borough": "Greenwich", "Address": "King William Walk", "Type": "Museums" }, "geometry": { "type": "Point", "coordinates": [ -0.007899992, 51.48229651 ] } },
{ "type": "Feature", "properties": { "Name": "HMS Belfast", "Borough": "Southwark", "Address": "Uxbridge", "Type": "Museums" }, "geometry": { "type": "Point", "coordinates": [ -0.07987744, 51.50607879 ] } },
{ "type": "Feature", "properties": { "Name": "Imperial War Museum London", "Borough": "Southwark", "Address": "Lambeth Rd", "Type": "Museums" }, "geometry": { "type": "Point", "coordinates": [ -0.106744975, 51.49549623 ] } },
{ "type": "Feature", "properties": { "Name": "The Old Operating Theater Museum and Herb Garret", "Borough": "Southwark", "Address": "9A St Thomasâ€™ Street", "Type": "Museums" }, "geometry": { "type": "Point", "coordinates": [ -0.086844633, 51.50449961 ] } },
{ "type": "Feature", "properties": { "Name": "Brunel Museum", "Borough": "Southwark", "Address": "Brunel Engine House", "Type": "Museums" }, "geometry": { "type": "Point", "coordinates": [ -0.051351513, 51.50108215 ] } },
{ "type": "Feature", "properties": { "Name": "Dulwich Picture Gallery", "Borough": "Southwark", "Address": "Gallery Road", "Type": "Museums" }, "geometry": { "type": "Point", "coordinates": [ -0.084837608, 51.4454594 ] } },
{ "type": "Feature", "properties": { "Name": "Osterley Park and House", "Borough": "Hounslow", "Address": "Jersey Road", "Type": "Museums" }, "geometry": { "type": "Point", "coordinates": [ -0.350182958, 51.48898096 ] } },
{ "type": "Feature", "properties": { "Name": "Gunnersbury Park Museum", "Borough": "Hounslow", "Address": "Gunnersbury Park", "Type": "Museums" }, "geometry": { "type": "Point", "coordinates": [ -0.284755866, 51.49903389 ] } },
{ "type": "Feature", "properties": { "Name": "The Cartoon Museum", "Borough": "Westminster", "Address": "63 Wells Street", "Type": "Museums" }, "geometry": { "type": "Point", "coordinates": [ -0.13865023, 51.517581 ] } },
{ "type": "Feature", "properties": { "Name": "Quentin Blake Centre for Illustration ", "Borough": "Islington", "Address": "Rear of, 28 Amwell St", "Type": "Museums" }, "geometry": { "type": "Point", "coordinates": [ -0.10994, 51.52836 ] } },
{ "type": "Feature", "properties": { "Name": "Photographer's Gallery", "Borough": "Westminster", "Address": "16-18 Ramillies Street", "Type": "Museums" }, "geometry": { "type": "Point", "coordinates": [ -0.13904674, 51.514925 ] } },
{ "type": "Feature", "properties": { "Name": "Whitechapel Gallery", "Borough": "Tower Hamlets", "Address": "77-82 Whitechapel High Street", "Type": "Museums" }, "geometry": { "type": "Point", "coordinates": [ -0.07038992, 51.516172 ] } },
{ "type": "Feature", "properties": { "Name": "Camera Museum", "Borough": "Camden", "Address": "44 Museum Street", "Type": "Museums" }, "geometry": { "type": "Point", "coordinates": [ -0.125256, 51.517682 ] } },
{ "type": "Feature", "properties": { "Name": "The Postal Museum", "Borough": "Camden", "Address": "15-20 Phoenix Place", "Type": "Museums" }, "geometry": { "type": "Point", "coordinates": [ -0.11408144, 51.52476 ] } },
{ "type": "Feature", "properties": { "Name": "Museum of Funeral History", "Borough": "Islington", "Address": "\t29-31 Rosebery Avenue", "Type": "Museums" }, "geometry": { "type": "Point", "coordinates": [ -0.11132672, 51.524095 ] } },
{ "type": "Feature", "properties": { "Name": "Antique Breadboard Museum", "Borough": "Wandsworth", "Address": "17 Lifford Street", "Type": "Museums" }, "geometry": { "type": "Point", "coordinates": [ -0.21839674, 51.463695 ] } },
{ "type": "Feature", "properties": { "Name": "London Mithraeum", "Borough": "City of London", "Address": "12 Walbrook", "Type": "Museums" }, "geometry": { "type": "Point", "coordinates": [ -0.090813816, 51.512711 ] } },
{ "type": "Feature", "properties": { "Name": "Turner's House", "Borough": "Richmond upon Thames", "Address": "40 Sandycoombe Road", "Type": "Museums" }, "geometry": { "type": "Point", "coordinates": [ -0.31622272, 51.45381 ] } },
{ "type": "Feature", "properties": { "Name": "Eel Pie Island Museum", "Borough": "Richmond upon Thames", "Address": "1-3 Richmond Road", "Type": "Museums" }, "geometry": { "type": "Point", "coordinates": [ -0.3256336, 51.448361 ] } },
{ "type": "Feature", "properties": { "Name": "Vagina Museum", "Borough": "Tower Hamlets", "Address": "18 Victoria Park Square", "Type": "Museums" }, "geometry": { "type": "Point", "coordinates": [ -0.05318, 51.52876 ] } },
{ "type": "Feature", "properties": { "Name": "Swendeborg Society Museum", "Borough": "Camden", "Address": "20-21 Bloomsbury Way", "Type": "Museums" }, "geometry": { "type": "Point", "coordinates": [ -0.12286419, 51.518012 ] } },
{ "type": "Feature", "properties": { "Name": "Biggin Hill Memorial Museum", "Borough": "Bromley", "Address": "Main Road", "Type": "Museums" }, "geometry": { "type": "Point", "coordinates": [ 0.02357799, 51.327177 ] } },
{ "type": "Feature", "properties": { "Name": "Stanley Picker Gallery", "Borough": "Kingston upon Thames", "Address": "Kingston School of Art", "Type": "Museums" }, "geometry": { "type": "Point", "coordinates": [ -0.29828949, 51.40501 ] } },
{ "type": "Feature", "properties": { "Name": "Studio Voltaire", "Borough": "Lambeth", "Address": "1A Nelsons Row", "Type": "Museums" }, "geometry": { "type": "Point", "coordinates": [ -0.13461766, 51.462095 ] } },
{ "type": "Feature", "properties": { "Name": "South London Gallery", "Borough": "Southwark", "Address": "65-67 Peckham Rd", "Type": "Museums" }, "geometry": { "type": "Point", "coordinates": [ -0.079775561, 51.474285 ] } },
{ "type": "Feature", "properties": { "Name": "Matt's Gallery", "Borough": "Southwark", "Address": "92 Webster Road", "Type": "Museums" }, "geometry": { "type": "Point", "coordinates": [ -0.062864801, 51.495482 ] } },
{ "type": "Feature", "properties": { "Name": "Lake Gallery (Southwark Park Galleries", "Borough": "Southwark", "Address": "1 Park Approach, Southwark Park", "Type": "Museums" }, "geometry": { "type": "Point", "coordinates": [ -0.053931951, 51.494147 ] } },
{ "type": "Feature", "properties": { "Name": "Dilston Gallery (Southwark Park Gallery)", "Borough": "Southwark", "Address": "Southwark Park Rd", "Type": "Museums" }, "geometry": { "type": "Point", "coordinates": [ -0.054290569, 51.491814 ] } },
{ "type": "Feature", "properties": { "Name": "Nunnery Gallery", "Borough": "Tower Hamlets", "Address": "181 Bow Rd", "Type": "Museums" }, "geometry": { "type": "Point", "coordinates": [ -0.017877042, 51.52892 ] } },
{ "type": "Feature", "properties": { "Name": "Chisenhale Gallery", "Borough": "Tower Hamlets", "Address": "64 Chisenhale Road", "Type": "Museums" }, "geometry": { "type": "Point", "coordinates": [ -0.039595359, 51.533143 ] } },
{ "type": "Feature", "properties": { "Name": "Auto Italia", "Borough": "Tower Hamlets", "Address": "44 Bonner Road", "Type": "Museums" }, "geometry": { "type": "Point", "coordinates": [ -0.052446491, 51.532367 ] } },
{ "type": "Feature", "properties": { "Name": "Peer UK", "Borough": "Hackney", "Address": "97-99 Hoxton Street", "Type": "Museums" }, "geometry": { "type": "Point", "coordinates": [ -0.080496648, 51.529808 ] } },
{ "type": "Feature", "properties": { "Name": "Autograph", "Borough": "Hackney", "Address": "Rivington Place", "Type": "Museums" }, "geometry": { "type": "Point", "coordinates": [ -0.079455921, 51.526446 ] } },
{ "type": "Feature", "properties": { "Name": "New Contemporaries", "Borough": "Tower Hamlets", "Address": "Rich Mix", "Type": "Museums" }, "geometry": { "type": "Point", "coordinates": [ -0.073301807, 51.524358 ] } },
{ "type": "Feature", "properties": { "Name": "SPACE Ilford", "Borough": "Redbridge", "Address": "10 Oakfield Road", "Type": "Museums" }, "geometry": { "type": "Point", "coordinates": [ 0.074540907, 51.558472 ] } },
{ "type": "Feature", "properties": { "Name": "Gasworks", "Borough": "Lambeth", "Address": "155 Vauxhall Street", "Type": "Museums" }, "geometry": { "type": "Point", "coordinates": [ -0.11545759, 51.485134 ] } },
{ "type": "Feature", "properties": { "Name": "Institute of International Visual Arts", "Borough": "Westminster", "Address": "Stuart Hall Library", "Type": "Museums" }, "geometry": { "type": "Point", "coordinates": [ -0.12926452, 51.490553 ] } },
{ "type": "Feature", "properties": { "Name": "Cubitt Artists", "Borough": "Islington", "Address": "8 Angel Mews", "Type": "Museums" }, "geometry": { "type": "Point", "coordinates": [ -0.10787081, 51.532348 ] } },
{ "type": "Feature", "properties": { "Name": "Institute of Contemporary Arts", "Borough": "Westminster", "Address": "The Mall, St. James's", "Type": "Museums" }, "geometry": { "type": "Point", "coordinates": [ -0.13092159, 51.506388 ] } },
{ "type": "Feature", "properties": { "Name": "Serpentine South Gallery", "Borough": "Westminster", "Address": "Kensington Gardens", "Type": "Museums" }, "geometry": { "type": "Point", "coordinates": [ -0.17500755, 51.504789 ] } },
{ "type": "Feature", "properties": { "Name": "Serpentine North Gallery", "Borough": "Westminster", "Address": "West Carriage Drive", "Type": "Museums" }, "geometry": { "type": "Point", "coordinates": [ -0.1713, 51.50704 ] } },
{ "type": "Feature", "properties": { "Name": "The Showroom", "Borough": "Westminster", "Address": "63 Penfold Street", "Type": "Museums" }, "geometry": { "type": "Point", "coordinates": [ -0.17280564, 51.52345 ] } },
{ "type": "Feature", "properties": { "Name": "Camden Art Centre", "Borough": "Camden", "Address": "Arkwright Road", "Type": "Museums" }, "geometry": { "type": "Point", "coordinates": [ -0.18349077, 51.55125 ] } },
{ "type": "Feature", "properties": { "Name": "LUX", "Borough": "Camden", "Address": "Dartmouth Park Hill", "Type": "Museums" }, "geometry": { "type": "Point", "coordinates": [ -0.14305657, 51.568341 ] } },
{ "type": "Feature", "properties": { "Name": "180 The Strand", "Borough": "Westminster", "Address": "Temple", "Type": "Museums" }, "geometry": { "type": "Point", "coordinates": [ -0.11510992, 51.512421 ] } },
{ "type": "Feature", "properties": { "Name": "Cabinet Gallery", "Borough": "Lambeth", "Address": "132 Tyers Street", "Type": "Museums" }, "geometry": { "type": "Point", "coordinates": [ -0.11950352, 51.487618 ] } },
{ "type": "Feature", "properties": { "Name": "Goldsmiths Centre for Contemporary Art", "Borough": "Lewisham", "Address": "St James’, New Cross", "Type": "Museums" }, "geometry": { "type": "Point", "coordinates": [ -0.035401153, 51.474144 ] } },
{ "type": "Feature", "properties": { "Name": "Mall Galleries", "Borough": "Westminster", "Address": "The Mall", "Type": "Museums" }, "geometry": { "type": "Point", "coordinates": [ -0.13017355, 51.506709 ] } },
{ "type": "Feature", "properties": { "Name": "hARTslane", "Borough": "Lewisham", "Address": "17 Harts Lane", "Type": "Museums" }, "geometry": { "type": "Point", "coordinates": [ -0.042943472, 51.475565 ] } },
{ "type": "Feature", "properties": { "Name": "Candid Arts Centre", "Borough": "Islington", "Address": "3 Torrens Street", "Type": "Museums" }, "geometry": { "type": "Point", "coordinates": [ -0.10512514, 51.532151 ] } },
{ "type": "Feature", "properties": { "Name": "Lewisham Arthouse", "Borough": "Lewisham", "Address": "140 Lewisham Way", "Type": "Museums" }, "geometry": { "type": "Point", "coordinates": [ -0.030634187, 51.471483 ] } },
{ "type": "Feature", "properties": { "Name": "Saatchi Gallery", "Borough": "Kensington and Chelsea", "Address": "Duke of York's HQ, King's Road", "Type": "Museums" }, "geometry": { "type": "Point", "coordinates": [ -0.15880202, 51.490723 ] } },
{ "type": "Feature", "properties": { "Name": "White Cube Bermondsey", "Borough": "Southwark", "Address": "144 – 152 Bermondsey Street ", "Type": "Museums" }, "geometry": { "type": "Point", "coordinates": [ -0.082680195, 51.499449 ] } },
{ "type": "Feature", "properties": { "Name": "White Cube Mason's Yard", "Borough": "Westminster", "Address": "25-26 Masons Yard, St. James's", "Type": "Museums" }, "geometry": { "type": "Point", "coordinates": [ -0.13718321, 51.507612 ] } },
{ "type": "Feature", "properties": { "Name": "Bankside Gallery", "Borough": "Southwark", "Address": "48 Hopton Street", "Type": "Museums" }, "geometry": { "type": "Point", "coordinates": [ -0.10096046, 51.508191 ] } },
{ "type": "Feature", "properties": { "Name": "Jerwood Space", "Borough": "Southwark", "Address": "171 Union Street", "Type": "Museums" }, "geometry": { "type": "Point", "coordinates": [ -0.099118829, 51.50362 ] } },
{ "type": "Feature", "properties": { "Name": "Islington Museum", "Borough": "Islington", "Address": "245 St John Street", "Type": "Museums" }, "geometry": { "type": "Point", "coordinates": [ -0.10455305, 51.526486 ] } },
{ "type": "Feature", "properties": { "Name": "The Mosaic Rooms", "Borough": "Kensington and Chelsea", "Address": "226 Cromwell Road", "Type": "Museums" }, "geometry": { "type": "Point", "coordinates": [ -0.19535, 51.49487 ] } },
{ "type": "Feature", "properties": { "Name": "Arts Council Collection", "Borough": "Lambeth", "Address": "Southbank Centre", "Type": "Museums" }, "geometry": { "type": "Point", "coordinates": [ -0.1163, 51.50608 ] } },
{ "type": "Feature", "properties": { "Name": "Emery Walker's House", "Borough": "Hammersmith and Fulham", "Address": "7 Hammersmith Terrace", "Type": "Museums" }, "geometry": { "type": "Point", "coordinates": [ -0.24244193, 51.48983 ] } },
{ "type": "Feature", "properties": { "Name": "Queen's House", "Borough": "Greenwich", "Address": "Romney Road", "Type": "Museums" }, "geometry": { "type": "Point", "coordinates": [ -0.004487344, 51.481337 ] } },
{ "type": "Feature", "properties": { "Name": "Royal Observatory Greenwich", "Borough": "Greenwich", "Address": "Blackheath Avenue", "Type": "Museums" }, "geometry": { "type": "Point", "coordinates": [ -0.000888495, 51.477346 ] } },
{ "type": "Feature", "properties": { "Name": "Chiswick House & Gardens", "Borough": "Hounslow", "Address": "Burlington Lane", "Type": "Museums" }, "geometry": { "type": "Point", "coordinates": [ -0.25866216, 51.48376 ] } },
{ "type": "Feature", "properties": { "Name": "Museum of Brands", "Borough": "Kensington and Chelsea", "Address": "111 – 117 Lancaster Road", "Type": "Museums" }, "geometry": { "type": "Point", "coordinates": [ -0.21102, 51.5163 ] } },
{ "type": "Feature", "properties": { "Name": "Pitzhanger Manor & Gallery", "Borough": "Ealing", "Address": "Mattock Lane", "Type": "Museums" }, "geometry": { "type": "Point", "coordinates": [ -0.3071148, 51.510907 ] } },
{ "type": "Feature", "properties": { "Name": "Garden Museum", "Borough": "Lambeth", "Address": "5 Lambeth Palace Road", "Type": "Museums" }, "geometry": { "type": "Point", "coordinates": [ -0.12022058, 51.495048 ] } },
{ "type": "Feature", "properties": { "Name": "Spencer House", "Borough": "Westminster", "Address": "27 St James’s Place", "Type": "Museums" }, "geometry": { "type": "Point", "coordinates": [ -0.1402519, 51.505151 ] } },
{ "type": "Feature", "properties": { "Name": "Apsley House (The Wellington Collection)", "Borough": "Westminster", "Address": "149 Piccadilly", "Type": "Museums" }, "geometry": { "type": "Point", "coordinates": [ -0.15186432, 51.50341 ] } },
{ "type": "Feature", "properties": { "Name": "Syon House & Gardens", "Borough": "Hounslow", "Address": "Syon Park", "Type": "Museums" }, "geometry": { "type": "Point", "coordinates": [ -0.31249, 51.4768 ] } },
{ "type": "Feature", "properties": { "Name": "Westminster Abbey Library", "Borough": "Westminster", "Address": "East Cloister", "Type": "Museums" }, "geometry": { "type": "Point", "coordinates": [ -0.12742012, 51.499003 ] } },
{ "type": "Feature", "properties": { "Name": "Lambeth Palace Library", "Borough": "Lambeth", "Address": "15 Lambeth Palace Road", "Type": "Museums" }, "geometry": { "type": "Point", "coordinates": [ -0.1185717, 51.497656 ] } },
{ "type": "Feature", "properties": { "Name": "HQS Wellington", "Borough": "Westminster", "Address": "Temple Stairs, Victoria Embakment", "Type": "Museums" }, "geometry": { "type": "Point", "coordinates": [ -0.11241675, 51.510633 ] } },
{ "type": "Feature", "properties": { "Name": "The Chocolate Museum", "Borough": "Lambeth", "Address": "187 Ferndale Rd", "Type": "Museums" }, "geometry": { "type": "Point", "coordinates": [ -0.11630269, 51.463925 ] } },
{ "type": "Feature", "properties": { "Name": "Van Gogh House London", "Borough": "Lambeth", "Address": "87 Hackford Road", "Type": "Museums" }, "geometry": { "type": "Point", "coordinates": [ -0.11517551, 51.474509 ] } },
{ "type": "Feature", "properties": { "Name": "Stour Gallery", "Borough": "Hackney", "Address": "258 Kingsland road", "Type": "Museums" }, "geometry": { "type": "Point", "coordinates": [ -0.07631648, 51.537312 ] } },
{ "type": "Feature", "properties": { "Name": "Madame Tussauds", "Borough": "Westminster", "Address": "Marylebone Rd", "Type": "Museums" }, "geometry": { "type": "Point", "coordinates": [ -0.15505127, 51.522965 ] } },
{ "type": "Feature", "properties": { "Name": "The Sherlock Holmes Museum", "Borough": "Westminster", "Address": "221b Baker St", "Type": "Museums" }, "geometry": { "type": "Point", "coordinates": [ -0.15858017, 51.523749 ] } },
{ "type": "Feature", "properties": { "Name": "San Mei Gallery", "Borough": "Lambeth", "Address": "39a Loughborough Road", "Type": "Museums" }, "geometry": { "type": "Point", "coordinates": [ -0.10854377, 51.470868 ] } },
{ "type": "Feature", "properties": { "Name": "Vigo Gallery", "Borough": "Westminster", "Address": "7-8 Masons Yard", "Type": "Museums" }, "geometry": { "type": "Point", "coordinates": [ -0.13730475, 51.507811 ] } },
{ "type": "Feature", "properties": { "Name": "Thaddeus Ropac", "Borough": "Westminster", "Address": "Ely House", "Type": "Museums" }, "geometry": { "type": "Point", "coordinates": [ -0.14253664, 51.508497 ] } },
{ "type": "Feature", "properties": { "Name": "The Stone  Space", "Borough": "Waltham Forest", "Address": "6 Church Lane", "Type": "Museums" }, "geometry": { "type": "Point", "coordinates": [ 0.010583682, 51.568201 ] } },
{ "type": "Feature", "properties": { "Name": "Chelsea Physic Garden", "Borough": "Kensington and Chelsea", "Address": "66 Royal Hospital Road", "Type": "Museums" }, "geometry": { "type": "Point", "coordinates": [ -0.16268225, 51.484858 ] } },
{ "type": "Feature", "properties": { "Name": "London Transport Museum", "Borough": "Westminster", "Address": "The Piazza ", "Type": "Museums" }, "geometry": { "type": "Point", "coordinates": [ -0.12124717, 51.512123 ] } },
{ "type": "Feature", "properties": { "Name": "Royal College of Physicians Museum", "Borough": "Camden", "Address": "11 St Andrews Place", "Type": "Museums" }, "geometry": { "type": "Point", "coordinates": [ -0.14500621, 51.525747 ] } },
{ "type": "Feature", "properties": { "Name": "Charles Dickens Museum", "Borough": "Camden", "Address": "48-49 Doughty St", "Type": "Museums" }, "geometry": { "type": "Point", "coordinates": [ -0.11626288, 51.523599 ] } },
{ "type": "Feature", "properties": { "Name": "The Cinema Museum", "Borough": "Lambeth", "Address": "2 Dugard Way", "Type": "Museums" }, "geometry": { "type": "Point", "coordinates": [ -0.10519433, 51.492279 ] } },
{ "type": "Feature", "properties": { "Name": "The Mill @ Coppermill", "Borough": "Waltham Forest", "Address": "7-11 Coppermill Lane", "Type": "Museums" }, "geometry": { "type": "Point", "coordinates": [ -0.034430334, 51.581733 ] } },
{ "type": "Feature", "properties": { "Name": "Guildhall Art Gallery", "Borough": "City of London", "Address": "Basinghall St", "Type": "Museums" }, "geometry": { "type": "Point", "coordinates": [ -0.091660082, 51.515566 ] } },
{ "type": "Feature", "properties": { "Name": "The Arab British Centre", "Borough": "City of London", "Address": "1 Gough Sqaure, EC4A 3DE", "Type": "Museums" }, "geometry": { "type": "Point", "coordinates": [ -0.10807957, 51.51514 ] } },
{ "type": "Feature", "properties": { "Name": "Oxford House in Bethnal Green", "Borough": "Tower Hamlets", "Address": "Derbyshire Street, London E2 6HG", "Type": "Museums" }, "geometry": { "type": "Point", "coordinates": [ -0.061510951, 51.526367 ] } },
{ "type": "Feature", "properties": { "Name": "Grant/Petrie/Art/Object Based Learning/Pathology muse", "Borough": "Camden", "Address": "various - all on Bloomsbury campus", "Type": "Museums" }, "geometry": { "type": "Point", "coordinates": [ -0.13468467, 51.523623 ] } },
{ "type": "Feature", "properties": { "Name": "Rosetta Arts", "Borough": "Newham", "Address": "1 HAMILTON RD, LONDON E15 3AE", "Type": "Museums" }, "geometry": { "type": "Point", "coordinates": [ 0.007076147, 51.524916 ] } },
{ "type": "Feature", "properties": { "Name": "JW3", "Borough": "Camden", "Address": "341-351 Finchley Road, London, NW3 6ET", "Type": "Museums" }, "geometry": { "type": "Point", "coordinates": [ -0.18481686, 51.550911 ] } },
{ "type": "Feature", "properties": { "Name": "College of Optometrists (British Optical Association ", "Borough": "Westminster", "Address": "College of Optometrists, 42 Craven Street, WC2N 5N", "Type": "Museums" }, "geometry": { "type": "Point", "coordinates": [ -0.12538634, 51.507837 ] } },
{ "type": "Feature", "properties": { "Name": "Usurp Art", "Borough": "Harrow", "Address": "140 Vaughan Road", "Type": "Museums" }, "geometry": { "type": "Point", "coordinates": [ -0.34938282, 51.579041 ] } },
{ "type": "Feature", "properties": { "Name": "University of the Arts London Gallery", "Borough": "Camden", "Address": "272 High Holborn", "Type": "Museums" }, "geometry": { "type": "Point", "coordinates": [ -0.1163883, 51.517765 ] } },
{ "type": "Feature", "properties": { "Name": "Brunei Gallery", "Borough": "Camden", "Address": "SOAS", "Type": "Museums" }, "geometry": { "type": "Point", "coordinates": [ -0.12925904, 51.52235 ] } },
{ "type": "Feature", "properties": { "Name": "L Ron Hubbard's Fitzroy House", "Borough": "Camden", "Address": "37 Fitzroy St", "Type": "Museums" }, "geometry": { "type": "Point", "coordinates": [ -0.13921366, 51.522499 ] } },
{ "type": "Feature", "properties": { "Name": "Four Corners Gallery", "Borough": "Tower Hamlets", "Address": "121 Roman Road", "Type": "Museums" }, "geometry": { "type": "Point", "coordinates": [ -0.04888, 51.52881 ] } },
{ "type": "Feature", "properties": { "Name": "Chisenhale Gallery", "Borough": "Tower Hamlets", "Address": "64 Chisenhale Road", "Type": "Museums" }, "geometry": { "type": "Point", "coordinates": [ -0.039595359, 51.533143 ] } },
{ "type": "Feature", "properties": { "Name": "Pitzhanger Manor House & Gallery", "Borough": "Ealing", "Address": "Walpole Park", "Type": "Museums" }, "geometry": { "type": "Point", "coordinates": [ -0.3071148, 51.510907 ] } },
{ "type": "Feature", "properties": { "Name": "Bhavan Art Gallery", "Borough": "Hammersmith and Fulham", "Address": "4a Castletown Road", "Type": "Museums" }, "geometry": { "type": "Point", "coordinates": [ -0.20706715, 51.489763 ] } },
{ "type": "Feature", "properties": { "Name": "Bethlem Gallery", "Borough": "Bromley", "Address": "Bethlem Royal Hospital", "Type": "Museums" }, "geometry": { "type": "Point", "coordinates": [ -0.02937, 51.38084 ] } },
{ "type": "Feature", "properties": { "Name": "The Aram Gallery", "Borough": "Westminster", "Address": "110 Drury Lane", "Type": "Museums" }, "geometry": { "type": "Point", "coordinates": [ -0.11885, 51.5133 ] } },
{ "type": "Feature", "properties": { "Name": "Queen's Gallery", "Borough": "Westminster", "Address": "Buckingham Palace Road", "Type": "Museums" }, "geometry": { "type": "Point", "coordinates": [ -0.14280725, 51.499715 ] } },
{ "type": "Feature", "properties": { "Name": "Pollock's Toy Museum", "Borough": "Camden", "Address": "1 Scala Street", "Type": "Museums" }, "geometry": { "type": "Point", "coordinates": [ -0.1353092, 51.520333 ] } },
{ "type": "Feature", "properties": { "Name": "ASC Gallery", "Borough": "Southwark", "Address": "Taplow House,", "Type": "Museums" }, "geometry": { "type": "Point", "coordinates": [ -0.08722, 51.48902 ] } },
{ "type": "Feature", "properties": { "Name": "Ambika P3", "Borough": "Westminster", "Address": "Uni. of Westminster,", "Type": "Museums" }, "geometry": { "type": "Point", "coordinates": [ -0.15459925, 51.522023 ] } },
{ "type": "Feature", "properties": { "Name": "Standpoint", "Borough": "Hackney", "Address": "45 Coronet Street", "Type": "Museums" }, "geometry": { "type": "Point", "coordinates": [ -0.081851649, 51.52707 ] } },
{ "type": "Feature", "properties": { "Name": "Bow Street Police Museum", "Borough": "Westminster", "Address": "28 Bow Street", "Type": "Museums" }, "geometry": { "type": "Point", "coordinates": [ -0.12178, 51.51338 ] } },
{ "type": "Feature", "properties": { "Name": "Southwark Heritage Centre and Walworth Library", "Borough": "Southwark", "Address": "145-147 Walworth Road", "Type": "Museums" }, "geometry": { "type": "Point", "coordinates": [ -0.097542326, 51.491652 ] } },
{ "type": "Feature", "properties": { "Name": "Migration Museum", "Borough": "Lewisham", "Address": "Lewisham Shopping Centre", "Type": "Museums" }, "geometry": { "type": "Point", "coordinates": [ -0.01178, 51.46145 ] } },
{ "type": "Feature", "properties": { "Name": "Crafts Council Gallery", "Borough": "Islington", "Address": "44a Pentonville Road", "Type": "Museums" }, "geometry": { "type": "Point", "coordinates": [ -0.10854254, 51.532143 ] } },
{ "type": "Feature", "properties": { "Name": "Harlesden High Street", "Borough": "Brent", "Address": "57 High Street", "Type": "Museums" }, "geometry": { "type": "Point", "coordinates": [ -0.24704201, 51.535877 ] } },
{ "type": "Feature", "properties": { "Name": "Mimosa House", "Borough": "Camden", "Address": "47 Theobalds Rd", "Type": "Museums" }, "geometry": { "type": "Point", "coordinates": [ -0.11840017, 51.520009 ] } },
{ "type": "Feature", "properties": { "Name": "A.P.T Gallery", "Borough": "Lewisham", "Address": "6, Creekside", "Type": "Museums" }, "geometry": { "type": "Point", "coordinates": [ -0.021522751, 51.476401 ] } },
{ "type": "Feature", "properties": { "Name": "QUEER BRITAIN", "Borough": "Camden", "Address": "2 Granary Square", "Type": "Museums" }, "geometry": { "type": "Point", "coordinates": [ -0.12398221, 51.535701 ] } },
{ "type": "Feature", "properties": { "Name": "Xxijra Hii", "Borough": "Lewisham", "Address": "Enclave 4", "Type": "Museums" }, "geometry": { "type": "Point", "coordinates": [ -0.024386142, 51.478455 ] } },
{ "type": "Feature", "properties": { "Name": "Gallery No.32", "Borough": "Bexley", "Address": "Manor Way", "Type": "Museums" }, "geometry": { "type": "Point", "coordinates": [ 0.1443602, 51.43838545 ] } },
{ "type": "Feature", "properties": { "Name": "Cygnet Sq (TACO!)", "Borough": "Bexley", "Address": "Cygnet Sq, SE2 9FA", "Type": "Museums" }, "geometry": { "type": "Point", "coordinates": [ 0.12293996, 51.49767 ] } },
{ "type": "Feature", "properties": { "Name": "Boston Manor House", "Borough": "Hounslow", "Address": "Boston Manor Road, Brentford TW8 9JX", "Type": "Museums" }, "geometry": { "type": "Point", "coordinates": [ -0.31842078, 51.491907 ] } },
{ "type": "Feature", "properties": { "Name": "Hogarth's House", "Borough": "Hounslow", "Address": "Hogarth Lane, Great West Road, W4 2QN", "Type": "Museums" }, "geometry": { "type": "Point", "coordinates": [ -0.25502369, 51.487015 ] } },
{ "type": "Feature", "properties": { "Name": "Bow Street Police Museum", "Borough": "Westminster", "Address": "28 Bow Street, Martlett Ct, WC2E 7AW", "Type": "Museums" }, "geometry": { "type": "Point", "coordinates": [ -0.121768577, 51.51339717 ] } }
]
}
